stop_id,stop_code,stop_name,stop_lat,stop_lon
6342,04,"Główna",52.0391670000,20.9952460000
41,01,"Wagonownia",52.2145750000,20.9303450000
8865,02,"Cm. Północny-Brama Płn.",52.3046850000,20.9072480000
302,02,"Wróbla",52.1735130000,21.0307230000
4195,01,"Bobrowiecka",52.0581230000,20.9735710000
1190,06,"Stare Bemowo",52.2582380000,20.8983140000
3227,01,"Osiedlowa",52.2639750000,20.8248400000
5880,02,"Brzozowa",52.4303330000,20.8777160000
344,01,"Szolc-Rogozińskiego",52.1499160000,21.0532640000
7989,00,"R2(P)",52.2551990000,21.0539410000
7598,09,"Centrum",52.2296870000,21.0111460000
6837,02,"Chmielna",52.2331030000,21.0147590000
6661,02,"Sowia Wola Folwarczna",52.3662650000,20.6295410000
2816,01,"Ogrody Działkowe Bemowo",52.2692760000,20.9331840000
7548,06,"Park Dreszera",52.1970160000,21.0241590000
2571,02,"Krokusów",52.1526340000,21.1872060000
8764,01,"Banacha-Szpital",52.2096240000,20.9874180000
4279,02,"Łazy-Szkoła",52.0760880000,20.8908850000
773,01,"Noakowskiego",52.2228230000,21.0076990000
92,04,"Sasanki",52.1840580000,20.9777250000
1533,07,"Szwedzka",52.2610200000,21.0461480000
9003,04,"Pl. Trzech Krzyży",52.2305300000,21.0217350000
9068,06,"Rondo Waszyngtona",52.2379360000,21.0509210000
4455,02,"Przemysłowa",52.4297130000,21.1566910000
4585,02,"Tadżycka",52.1940340000,21.1623190000
6590,01,"Łąkowa",52.0006090000,21.0449470000
7770,02,"Czapelska",52.2446590000,21.0918730000
101,01,"Niemcewicza",52.2212660000,20.9839320000
3912,02,"Jerzego",52.2682800000,21.1702490000
3286,02,"Żanęcin",52.1534440000,21.3260240000
1602,02,"Grabina",52.3656300000,21.0284040000
1283,01,"Piaski",52.2719030000,20.9445810000
1962,02,"Trakt Lubelski",52.2281670000,21.1406530000
1892,01,"Łubinowa",52.2604570000,21.0946090000
2839,03,"Ogród Botaniczny",52.1049790000,21.0927170000
3415,05,"Domaniewska",52.1832450000,21.0032120000
3370,02,"Nowotyska",52.1971610000,20.8936990000
5435,02,"Czarna",52.3691030000,21.2254950000
6786,06,"Winnica",52.3400130000,20.9467130000
2076,02,"Marsa-Las",52.2477880000,21.1431910000
7624,06,"Stawki",52.2507000000,20.9859650000
2329,01,"Borków",52.1898110000,21.1407290000
1447,01,"Marymont-Potok",52.2745300000,20.9815340000
1579,01,"Polnych Kwiatów",52.3498680000,20.9777110000
3507,01,"PKP Michalin",52.1482450000,21.2239990000
9345,03,"Radomska",52.0523740000,20.9033520000
7035,02,"Długa",52.0783880000,21.0680930000
2069,02,"Korkowa-Cmentarz",52.2417330000,21.1652940000
3625,02,"Jadwisin",52.1946870000,20.9671290000
529,02,"Gołkowska",52.1930490000,21.0583570000
8780,12,"P+R Al. Krakowska",52.1755050000,20.9435040000
3484,02,"Wenecka",52.3568850000,21.1332080000
5889,16,"Dw. Wschodni (Kijowska)",52.2542570000,21.0555200000
2321,02,"Dzielnicowa",52.2221000000,21.1380230000
8270,02,"Przytorowa",52.3624160000,21.2758410000
2407,02,"Ogrody Działkowe Na Skraju",52.1562230000,20.9598030000
3210,01,"Nowa",52.0827990000,21.0033780000
657,06,"Ciszewskiego",52.1585940000,21.0498730000
6819,05,"Ostroroga",52.2477720000,20.9650920000
3666,02,"Buków",52.3564700000,20.9409640000
14,02,"Instalatorów-KAM",52.1986380000,20.9565970000
2603,02,"Świdry Wielkie",52.1059240000,21.2349150000
4787,01,"Pogroszew",52.2308570000,20.7452930000
5946,02,"Drewnicka",52.3119970000,21.1331060000
224,02,"Wyścigi",52.1668760000,21.0181030000
6301,02,"Ładna",52.0442200000,20.9521030000
3518,03,"Metro Imielin",52.1501630000,21.0447820000
4097,01,"PKP Michałów-Reginów",52.4191990000,20.9636700000
2633,02,"Wiosenna",52.2496980000,21.2399300000
5192,03,"Nowodwory",52.3324440000,20.9406180000
1763,06,"Bródno-Podgrodzie",52.3001430000,21.0417610000
3374,03,"Ruskowy Bród",52.3607550000,21.0533220000
8406,76,"Sielce",52.2069760000,21.0471880000
5949,02,"Mickiewicza",52.3060550000,21.1576670000
7500,01,"PKP Nowy Dwór Mazowiecki",52.4251260000,20.7240130000
2915,01,"Skoroszewska",52.1934960000,20.9037790000
498,04,"Dolina Służewiecka",52.1756380000,21.0429690000
5566,01,"Długosza",52.2409910000,20.9704510000
607,02,"Konduktorska",52.2006900000,21.0297630000
9769,04,"Borzęcin Duży",52.2525640000,20.7350200000
7657,04,"Zajezdnia Wola",52.2351100000,20.9735580000
3241,02,"Cmentarz",52.2510540000,20.8469060000
8041,14,"Metro Młociny",52.2919390000,20.9300380000
3090,02,"Hetmańska",52.2450740000,21.1098940000
7780,04,"Międzyborska",52.2457910000,21.0760550000
187,01,"Pl. Starynkiewicza",52.2260230000,20.9945850000
1645,01,"Piaskowa",52.3692500000,20.9297700000
3159,02,"Poznańska",52.2113150000,20.7636000000
2382,02,"Motylkowa",52.2008840000,21.1495670000
7061,02,"Janów-Mikołajówka",52.3714540000,20.6585880000
7602,05,"Królewska",52.2386200000,21.0063640000
1665,02,"Atrakcyjna",52.3321390000,21.0559440000
5711,03,"Młynarska",52.2377810000,20.9716760000
5253,01,"IX Poprzeczna",52.2127200000,21.1661400000
9291,02,"Stogi",52.3381560000,21.0537950000
2377,01,"Spadowa",52.2236140000,21.1393540000
2649,01,"Terespolska",52.2189720000,21.3010650000
453,01,"Metro Wilanowska",52.1815200000,21.0220300000
4421,03,"Rybna",52.0493100000,20.9335700000
2322,02,"Klimontowska",52.2181510000,21.1343490000
675,01,"Zalesinek",52.0518160000,20.9987310000
3576,06,"Znana",52.2340780000,20.9258590000
4333,02,"Czernidła",52.0891220000,21.1899370000
9525,02,"Harcerska",52.1736500000,20.8399100000
1179,02,"Os. Górczewska",52.2405330000,20.8969580000
8336,01,"Goworka",52.2110670000,21.0224950000
4731,02,"Zapustna",52.1944760000,20.9096950000
5738,01,"Leśna",52.4184660000,20.7380870000
3155,02,"Przyleśna",52.3857520000,21.0302510000
1751,02,"Suwalska",52.2961230000,21.0329850000
1792,03,"Bazyliańska",52.2919200000,21.0181210000
7161,01,"Maszynowa",52.2028110000,20.9494130000
6028,05,"Fort Wola",52.2229570000,20.9302130000
305,01,"Arbuzowa",52.1675940000,21.0437920000
4718,01,"Dzika",52.2791840000,21.1246640000
1594,02,"Zaplecze",52.3188110000,21.0199600000
8382,03,"Urząd Gminy",51.9398900000,20.9562130000
3828,01,"Dworkowa",52.3719620000,20.9343430000
2446,01,"Stadion",52.1505310000,20.9292130000
7742,04,"Bohomolca",52.2724490000,20.9834550000
9688,02,"Drwęcka",52.2541780000,21.0772580000
2840,02,"Ogród Botaniczny",52.1049480000,21.0979760000
8544,80,"Grodzisk Mazowiecki",52.1665034216,20.7983719770
7785,01,"Czapelska",52.2448310000,21.0912330000
7914,03,"Aspekt",52.2784440000,20.9332000000
7609,01,"KS Polonia",52.2557870000,20.9987680000
5497,02,"Leśniakowizna",52.3173040000,21.2708580000
7696,03,"Gen. Zajączka",52.2620600000,20.9928860000
3643,04,"Spisaka",52.1905930000,20.8836030000
4351,02,"Cedrowa",52.0707900000,21.0994380000
1211,01,"Deotymy",52.2469550000,20.9471150000
9764,51,"Rzemieślnicza",52.1120730000,21.2582860000
8148,01,"Wiosenna",52.3691040000,21.2851810000
9574,51,"Podróżna-Pętla",52.3648680000,20.8362200000
468,01,"Grabów",52.1467200000,21.0174500000
5552,02,"Twardowska",52.2859530000,20.9539090000
6693,02,"Cicha",52.3842870000,20.7523820000
918,06,"Pl. Na Rozdrożu",52.2196440000,21.0260350000
4436,02,"Nadarzyńska",52.0727750000,21.0231570000
9711,05,"Vogla",52.1590330000,21.0854590000
3993,02,"Jarosławska",52.1302600000,21.2400900000
4275,01,"Janczewice",52.1104550000,20.9315820000
6539,01,"Nadma",52.3618740000,21.1662840000
2853,04,"Al. Witosa",52.1980520000,21.0529870000
3199,01,"Władysławów",52.0633240000,20.9207540000
7614,06,"Muzeum Narodowe",52.2319450000,21.0216330000
7513,01,"Lipowczana",52.1832740000,20.9515960000
230,02,"Łagiewnicka",52.1284280000,21.0182790000
7858,12,"PKP Służewiec",52.1818290000,20.9887980000
6206,01,"Stara Miłosna (Ułańska)",52.2207960000,21.2431480000
3186,01,"Lesznowola",52.0912180000,20.9336310000
3197,01,"Polna",52.0656130000,20.9277660000
8981,01,"Wólka Dworska-Wisła",52.0182620000,21.2197970000
6824,02,"Werbeny",52.0064571600,20.9588585900
1628,02,"Gryfitów",52.3042130000,21.0299450000
2541,03,"Falenica",52.1593640000,21.2046820000
2675,02,"Parkowa",52.2150320000,20.7742360000
2423,02,"Falencka",52.1379000000,20.9018000000
2248,02,"Klasztorna",52.2548210000,21.1619050000
9389,02,"Obrońców Westerplatte",52.3118330000,21.1511390000
7504,03,"Włochy-Ratusz",52.1928670000,20.9605470000
260,03,"Przekorna",52.1241620000,21.1027470000
3639,01,"Prystora",52.1891820000,20.9038560000
1864,01,"Metro Szwedzka",52.2625410000,21.0444820000
863,01,"Stare Miasto",52.2467780000,21.0155640000
7863,03,"Metro Politechnika",52.2199400000,21.0149970000
1103,01,"Pirenejska",52.2559150000,20.9182680000
256,02,"Powsinek",52.1532050000,21.0916130000
4636,03,"Słoneczna",51.9877870000,21.0386640000
1887,02,"Chemiczna",52.2638870000,21.0638160000
5897,04,"Buraków",52.3241450000,20.9106690000
3879,02,"Kamykowa",52.3174960000,21.0436240000
5305,02,"Cmentarz",51.9846190000,21.1958200000
4792,02,"Łaźniewska",52.2179820000,20.6921550000
9782,02,"Mokotów-Ratusz",52.2085600000,21.0133220000
401,05,"Kulskiego",52.2019440000,21.0025240000
306,01,"SGGW-Rektorat",52.1624650000,21.0478180000
6644,04,"PKP Piaseczno",52.0670480000,21.0175310000
8053,05,"Al. Zieleniecka",52.2482530000,21.0461830000
1580,01,"Choszczówka",52.3554990000,20.9823280000
171,02,"Spiska",52.2234490000,20.9833740000
3899,01,"Lalki",52.1970220000,20.8807470000
1163,03,"Mennica",52.2336690000,20.9912880000
1624,01,"Św. Hieronima",52.2922920000,21.0219120000
9352,01,"Klonowa",52.2620030000,20.7815860000
4964,02,"Malowana",52.1860360000,21.1537940000
1959,04,"Płowiecka",52.2346150000,21.1283330000
2070,01,"Marysin",52.2397880000,21.1550700000
511,01,"Powsinek",52.1508470000,21.0915900000
5209,06,"Konstruktorska",52.1856060000,21.0006760000
8800,01,"Os. Pozytywny Mokotów",52.1855160000,20.9982500000
4149,01,"Rozwojowa",52.4588190000,20.9083320000
8237,06,"Dalibora",52.2468520000,20.9433140000
272,02,"Limanowskiego",52.1909240000,21.0593250000
209,05,"Szczęśliwice",52.2077000000,20.9636040000
7655,07,"Okopowa",52.2361260000,20.9804510000
2945,02,"Instruktorska",52.2501140000,21.1748970000
4768,01,"Metro Wawrzyszew",52.2871860000,20.9371000000
7668,04,"Rogalińska",52.2310600000,20.9690820000
5723,02,"Lipowa",52.4014690000,20.8239620000
5528,05,"Główna",52.0395850000,20.9968730000
9027,01,"Os. Radiówek",52.1540290000,21.3118080000
8504,80,"Warszawa Wola Grzybowska",52.2528600000,21.2504220000
3039,01,"Żywiecka",52.1855370000,20.9038580000
1196,04,"Hala Wola",52.2290610000,20.9145660000
4517,01,"Izabelińska",52.3961650000,21.0574040000
4278,01,"Al. Jedności",52.1030750000,20.9318840000
3207,02,"Krótka",52.0808780000,20.9773010000
234,02,"Karczunkowska",52.1120560000,21.0186690000
8226,04,"Sękocin-Las",52.1011800000,20.8870590000
900,05,"GUS",52.2171680000,21.0063970000
1990,01,"Płowiecka",52.2348270000,21.1260120000
3584,17,"Metro Marymont",52.2718210000,20.9681780000
2323,02,"Lucerny",52.2147150000,21.1328030000
9520,01,"Niepodległości",52.4505600000,20.9708930000
8896,01,"Kościuszki-Szkoła",52.2934840000,20.8108160000
6151,01,"Mariańska",52.2380330000,21.2571880000
9229,01,"Instytut Psychiatrii i Neurologii",52.1719940000,21.0658990000
6040,01,"Wąwozowa",52.1327300000,21.0757350000
5363,01,"Paderewskiego",52.2698820000,21.1508590000
311,01,"Madalińskiego-Szpital",52.2042680000,21.0158430000
8948,01,"Kadetów-Kościół",52.2148270000,21.1186720000
1620,02,"Chodecka",52.2888730000,21.0409290000
5097,01,"Kaflowa",52.3225660000,20.9653850000
19,02,"Sasanki",52.1840760000,20.9792230000
5537,01,"Stare Grabie",52.3636240000,21.3330790000
2759,01,"Agricoop",52.2144930000,20.7445730000
768,02,"Makolągwy",52.1453140000,21.0263960000
1881,01,"Klamrowa",52.2863570000,21.0933640000
4394,01,"Tłuchowska",52.3412580000,20.9409040000
2554,01,"Przełęczy",52.1692500000,21.2241190000
636,04,"Ursynów Płd.",52.1543090000,21.0378530000
8149,02,"PKP Zagościniec",52.3661120000,21.2801420000
3157,01,"Stanisławów",52.3935020000,21.0334440000
4071,01,"Os. Lewandów II",52.3222670000,21.0744400000
5322,02,"Sarmacka",52.1578310000,21.0800060000
1401,02,"Estrady",52.2989490000,20.8811640000
2892,03,"Raabego",52.1366370000,21.0616030000
8776,02,"Os. Leśne",52.2547260000,20.9311000000
5500,01,"Mostówka",52.3353910000,21.2988120000
2530,02,"Wspólna",52.3349250000,21.1148960000
2187,02,"Tor Kolarski",52.2517900000,21.0730300000
797,07,"Metro Politechnika",52.2192500000,21.0153430000
112,01,"Wawelska",52.2168460000,20.9818850000
1903,06,"Dw. Wschodni (Kijowska)",52.2529560000,21.0520350000
4199,01,"Północna",52.0563590000,20.9831970000
4753,03,"Skoroszewska",52.1934310000,20.9027770000
6334,02,"Grodzisk",52.3227210000,21.0687790000
4977,01,"Łasaka",52.2167620000,21.1094330000
1736,01,"Erazma z Zakroczymia",52.3241920000,20.9463310000
4357,02,"Obory",52.0814450000,21.1465850000
681,01,"Klarysew",52.1022330000,21.1143930000
2755,01,"Radiostacja Łazy",52.0752290000,20.8757160000
1568,02,"Parowozowa",52.3449280000,20.9831100000
7727,03,"Cm. Wawrzyszewski",52.2802630000,20.9280180000
7947,03,"Rembielińska",52.2885460000,21.0304070000
969,02,"Legia-Stadion",52.2215550000,21.0434830000
1776,03,"Metro Trocka",52.2748600000,21.0549460000
8892,02,"Mirków-Szkoła",52.1000010000,21.1296840000
8846,02,"Kocjana-Bocznica",52.2511900000,20.8856700000
4772,01,"Kalinowa Droga",52.2289500000,20.8625800000
7450,03,"Małe Siekierki",52.2021300000,21.0690700000
7963,04,"Kijowska",52.2499690000,21.0415880000
6792,02,"Hallera",52.4052720000,21.1732200000
7758,03,"Rondo Starzyńskiego",52.2634530000,21.0197620000
251,02,"Patkowskiego",52.1728910000,21.0545780000
8832,02,"Most Poniatowskiego",52.2347760000,21.0349510000
8137,03,"Szpital Wolski",52.2286500000,20.9687880000
1243,02,"Blizne Jasińskiego",52.2424390000,20.8733510000
6595,01,"Pileckiego",52.1409730000,21.0401010000
1670,02,"Siwińskiego",52.3918180000,20.9233090000
6651,02,"Andersena",52.2836980000,21.1395260000
5354,04,"Wielkiego Dębu",52.3069630000,21.0304390000
366,02,"Dom Artystów",52.0846380000,21.0796890000
4210,01,"3 Maja",52.0015500000,20.9145400000
5187,01,"Stawy",52.2044540000,20.9214350000
1481,01,"Latoszki",52.1316780000,21.1283680000
2133,01,"PKP Mokry Ług",52.2768480000,21.1703210000
2051,02,"Pomologiczna",52.1868920000,21.1856940000
9238,52,"Bydgoska",52.0853820000,21.0934770000
4807,01,"Wierzbowa",52.0371600000,20.9316730000
8495,80,"Warszawa Radość",52.1857300000,21.1871720000
304,02,"Nowoursynowska",52.1709900000,21.0418600000
3283,01,"Szkolna",52.1704930000,21.2934500000
7771,06,"Al. Zieleniecka",52.2475280000,21.0484680000
7921,08,"Zajezdnia Żoliborz",52.2993120000,20.9353150000
9719,01,"Pałacowa",52.1465320000,21.0936120000
1973,16,"Wiatraczna",52.2447330000,21.0881850000
3135,01,"Torfowa",52.2182960000,21.2227000000
639,02,"Magellana",52.1552170000,21.0409640000
6625,02,"Baniocha-Marki",52.0168200000,21.1389170000
3479,01,"Hanki Ordonówny",52.3324080000,20.9358240000
8064,28,"Metro Młociny",52.2915660000,20.9289240000
358,01,"Kusocińskiego",52.0798690000,21.0214170000
4024,01,"Konotopska",52.2069030000,20.8651100000
8998,02,"Conrada-Szkoła",52.2716150000,20.9281570000
1875,02,"Tużycka",52.2844550000,21.0735400000
1852,01,"Namysłowska",52.2668180000,21.0300330000
2854,01,"SGGW-Klinika",52.1603920000,21.0499240000
1686,02,"Cmentarz",52.4146440000,20.9253030000
1920,10,"Rondo Starzyńskiego",52.2627450000,21.0220030000
6526,02,"Areszt Śledczy Białołęka",52.3358330000,21.0091890000
5334,01,"Drzeworytników",52.2168190000,20.9011170000
8470,80,"Legionowo Piaski",52.4126110000,20.9427240000
484,01,"Dolna",52.2021340000,21.0349650000
2567,01,"Bartoszycka",52.1622540000,21.2210950000
5475,01,"Reja",52.3498840000,21.2539440000
2775,02,"Port Pilawa",52.4370420000,21.0455150000
5493,02,"Ossów-Krzyż",52.3097840000,21.2329290000
2314,01,"Hortensji",52.1771770000,21.1743070000
2546,01,"Falenica",52.1594770000,21.2032980000
4102,01,"Piaskowa",52.4288300000,20.9549980000
2159,04,"Zamieniecka",52.2361960000,21.0983630000
6741,04,"Szpital Powiatowy",52.3453640000,21.2216000000
3943,04,"Kadetów",52.2121080000,21.1062850000
1479,02,"Galla Anonima",52.2699390000,20.9401960000
1424,01,"Oczapowskiego",52.2838350000,20.9444120000
7982,11,"Wiatraczna",52.2445770000,21.0848740000
4565,01,"Kościół",52.3418620000,20.8838870000
1679,01,"Myśliborska",52.3171000000,20.9618980000
1516,01,"Wołomińska",52.2626950000,21.0547960000
5786,02,"Hala Znicz",52.1705870000,20.8153520000
3001,03,"Mochtyńska",52.3571360000,21.0364560000
2071,05,"Marysin",52.2386500000,21.1565540000
7876,01,"Boernerowo",52.2634730000,20.8998720000
2208,01,"Żupnicza",52.2504920000,21.0589500000
6820,01,"Wolności",52.3150730000,21.1577510000
3623,02,"Dickensa",52.2054340000,20.9713740000
2940,02,"Rodła",52.2621980000,20.9180940000
1094,01,"Blizne Jasińskiego",52.2420700000,20.8750710000
9696,04,"Klonowa",52.2627490000,20.7830910000
6165,02,"Karłowicza",52.3420660000,21.1080880000
7881,05,"Cm. Wolski",52.2247170000,20.9309570000
5382,02,"Długa",52.1137560000,20.8550830000
7037,02,"Zielonki",52.2514800000,20.8222330000
2558,01,"Kosodrzewiny",52.1569690000,21.2027130000
2724,02,"Milenium",52.0330520000,20.9510990000
3029,01,"Idzikowskiego",52.2442520000,21.2629130000
1089,01,"Grenady",52.2401570000,20.9651030000
2627,01,"Al. Piłsudskiego",52.2475610000,21.2652180000
682,01,"Iwiczna",52.0916550000,21.0187710000
2542,01,"PKP Falenica",52.1611930000,21.2111210000
1928,03,"Żerań FSO",52.2906790000,21.0027770000
909,04,"Krucza",52.2292200000,21.0172620000
6017,02,"Stara",52.3635090000,21.1610270000
9623,02,"Płatnerska",52.2547240000,21.1548800000
4669,02,"Ruskowy Bród",52.3613060000,21.0542620000
4834,02,"Kameliowa",52.0970310000,20.9737940000
5152,02,"Orzechowa",52.2312950000,20.8226250000
3354,01,"Al. Wojska Polskiego",52.1597330000,20.8014720000
987,02,"Nowolipki",52.2442380000,20.9918370000
8122,02,"Nowe Grabie I",52.3563140000,21.3043890000
599,02,"Smoluchowskiego",52.1803770000,21.0142000000
2662,02,"Podgórna",52.2198370000,21.2965710000
1964,02,"Al. Zieleniecka",52.2468700000,21.0475800000
241,01,"Tor Stegny",52.1893320000,21.0476060000
377,02,"Zaściankowa",52.1670800000,21.1080000000
8916,01,"Cm. Południowy-Brama Płd.",52.0564230000,20.8979210000
2689,10,"Metro Wilanowska",52.1798510000,21.0236720000
6748,02,"Świętojańska",52.0613570000,21.0309410000
6265,02,"Metro Targówek Mieszkaniowy",52.2693920000,21.0510880000
7874,00,"R1(W)",52.2343090000,20.9729300000
4432,02,"Ogrody Działkowe Piaski",52.2608310000,20.9397220000
8013,03,"Reduta Wolska",52.2263480000,20.9418560000
7660,03,"Sokołowska",52.2323030000,20.9604080000
6703,02,"Augustówek",52.3743530000,20.6977250000
3613,02,"Gen. Kutrzeby",52.2503160000,20.8274900000
7716,05,"Metro Słodowiec",52.2756750000,20.9638620000
5942,02,"Przejezdna",52.3438140000,21.0459270000
5726,01,"Puszczyka",52.4022060000,20.8197650000
9459,01,"Ptaków Leśnych",52.0568410000,21.0607000000
193,02,"Siemieńskiego",52.2022920000,20.9739300000
7055,15,"Metro Bródno",52.2934480000,21.0260900000
4000,02,"Jachtowa",52.1787080000,21.2338880000
3335,01,"Ks. Skorupki",52.4034090000,20.9256360000
7997,03,"Banacha",52.2101890000,20.9824700000
3795,02,"Szaserów",52.2441880000,21.1181230000
515,03,"Rosochata",52.1280530000,21.1044900000
2189,02,"Przeworska",52.2526350000,21.0841420000
7945,02,"Metro Bródno",52.2930980000,21.0273590000
3561,02,"Sołtyka",52.2449600000,20.9672880000
8155,51,"Orzeszkowej",52.3256280000,21.2158130000
8834,06,"Most Poniatowskiego",52.2345680000,21.0385220000
4120,01,"Wieliszew-Plaża",52.4788980000,20.9454850000
4107,02,"Podgórna",52.4441480000,20.9648180000
2155,02,"Poligonowa",52.2359550000,21.0882870000
5845,01,"Kolejowa",52.3575300000,20.8330980000
5581,01,"Kórnicka",52.1240740000,20.9983970000
3681,01,"PKP Legionowo Piaski",52.4119990000,20.9393800000
4861,02,"Polna",52.4412060000,20.8214990000
192,07,"Banacha",52.2103950000,20.9844720000
431,01,"Rybałtów",52.1316770000,21.0559350000
777,12,"Dw. Centralny",52.2305200000,21.0045900000
8886,01,"Rondo Waszyngtona",52.2375970000,21.0486540000
3683,01,"Mysiadło",52.0985880000,21.0185970000
2056,02,"PKP Gocławek",52.2389760000,21.1325150000
3800,02,"Cukrownicza",52.2421500000,21.1241820000
4578,02,"Wiechy",52.1278880000,21.1384860000
5849,01,"Sadowa-Dom Opieki",52.3489830000,20.8277370000
1929,04,"Żerań FSO",52.2903310000,21.0033790000
448,17,"Metro Wilanowska",52.1798540000,21.0242240000
8497,80,"Warszawa Falenica",52.1619340000,21.2108970000
4064,04,"Golędzinów",52.2667240000,21.0206890000
5214,01,"Żymirskiego-Przychodnia",52.3386340000,21.1991540000
6232,02,"Przy Grodzisku",52.2923590000,21.0565550000
3355,03,"Ołówkowa",52.1598100000,20.7924500000
2629,01,"Puszkina",52.2486110000,21.2585540000
8956,01,"Armii „Poznań”",52.3454330000,20.8728650000
7619,04,"Most Gdański",52.2600910000,21.0071990000
2327,04,"Zwoleńska",52.1966900000,21.1366150000
489,01,"Czarnomorska",52.1847300000,21.0524700000
4208,02,"OSP Złotokłos",52.0041620000,20.9080460000
8027,03,"Postępu",52.1792410000,20.9983310000
158,01,"Baleya",52.1956210000,20.9826700000
296,01,"Os. Bernardyńska",52.1922430000,21.0643820000
3152,01,"Szamoty",52.0676970000,20.8437750000
5667,02,"Leśniakowizna II",52.3115530000,21.2577400000
5092,02,"Salomea",52.1876280000,20.9108610000
2472,01,"Ursus-Sanktuarium",52.1916270000,20.8612490000
1608,04,"Kołowa",52.2735780000,21.0440040000
8062,03,"Stare Świdry",52.3131010000,20.9655540000
490,04,"Św. Bonifacego",52.1811020000,21.0546650000
274,02,"Sadyba",52.1827640000,21.0684580000
7798,03,"Kinowa",52.2420720000,21.0706160000
3476,02,"Ciołkosza",52.3282770000,20.9365440000
2148,04,"Saska",52.2287150000,21.0630890000
1576,01,"Białołęka Dworska",52.3362400000,21.0042770000
719,03,"Polskie Radio",52.1930490000,21.0141130000
5819,02,"Pilcha",52.3463630000,20.8724240000
6683,02,"Graniczna",52.3732560000,20.7222400000
3175,02,"Pomorska",52.0638030000,21.0171200000
877,02,"Jaracza",52.2359710000,21.0315840000
622,02,"Łowicka",52.2023740000,21.0047010000
2610,01,"Tomaszowska",52.1810490000,21.1922680000
5437,02,"Reja",52.3506490000,21.2543160000
4632,02,"Akacjowa",51.9602570000,21.0756020000
4884,01,"Obrońców Warszawy",52.2140240000,20.7992860000
1897,01,"Markowska",52.2545760000,21.0448620000
1069,02,"Cm. Żydowski",52.2448190000,20.9775090000
7560,08,"Al. Lotników",52.1729240000,21.0196270000
7410,01,"Suwalska",52.2960070000,21.0328230000
6031,01,"Goleszowska",52.2236800000,20.9418620000
5680,02,"Regulska",52.1833200000,20.8705160000
690,01,"Siedliskowa",52.1770330000,21.1063170000
3552,06,"Gocław",52.2234130000,21.1003090000
4902,02,"Zasadowa",52.1842480000,21.1731550000
411,04,"Bełdan",52.1748640000,21.0127410000
6520,02,"Metryczna",52.1560160000,21.1253600000
2402,01,"Rybna",52.1590360000,20.9416870000
6459,01,"Łoś",51.9805397400,20.9504839400
2292,02,"Draceny",52.1756990000,21.1769080000
1392,05,"Bogusławskiego",52.2802040000,20.9231090000
331,04,"Metro Ursynów",52.1619710000,21.0293790000
7524,03,"Korotyńskiego",52.2024100000,20.9690280000
3680,02,"PKP Legionowo Piaski",52.4119030000,20.9398270000
8863,02,"Cm. Północny-Brama Gł.",52.2988850000,20.9029560000
5816,01,"Lwowska",52.3338670000,20.8993270000
1310,01,"Tylżycka",52.2815260000,20.9846090000
7631,09,"Kino Femina",52.2422200000,20.9932770000
2235,04,"Stacja Krwiodawstwa",52.2328400000,21.0606480000
1825,01,"Parowozowa",52.3452350000,20.9825340000
4015,04,"Pomnik Lotnika",52.2163890000,20.9873260000
2823,21,"Dw. Centralny",52.2294440000,21.0037240000
8074,05,"Mehoffera",52.3228060000,20.9439110000
624,02,"Metro Ursynów",52.1624900000,21.0278300000
1203,02,"Wrocławska",52.2566810000,20.9189910000
4784,01,"Umiastów",52.2314460000,20.7646330000
8345,05,"Deotymy",52.2470060000,20.9471120000
7551,06,"Malczewskiego",52.1943710000,21.0243260000
3410,05,"Bartycka",52.2104300000,21.0474600000
8492,80,"Warszawa Wawer",52.2233620000,21.1496050000
695,01,"Małej Łąki",52.1345170000,21.0529700000
4040,02,"Frachtowa",52.3591520000,21.0399400000
3878,01,"Echa Leśne",52.3177830000,21.0359660000
8227,02,"Objazdowa",52.3918500000,20.9813600000
5171,01,"PKP Zacisze-Wilno",52.2773190000,21.0804090000
7530,03,"Bitwy Warszawskiej 1920 r.",52.2120110000,20.9774100000
8584,80,"Komorów",52.1797681223,20.9020893003
3043,01,"Gniewkowska",52.2128420000,20.9221390000
855,02,"Piękna",52.2232200000,21.0243380000
2315,01,"Draceny",52.1761500000,21.1759080000
686,02,"Małcużyńskiego",52.1389330000,21.0544330000
2861,02,"Sierakowskiego",52.2508370000,21.0344410000
9581,05,"Idzikowskiego",52.1914250000,21.0453930000
8534,80,"Nasielsk",52.4123164281,20.9083511455
679,02,"Sobieskiego",52.0890180000,21.1217060000
7932,03,"Annopol",52.2985400000,21.0218820000
5103,01,"Pilawa",52.0388630000,21.0878170000
478,02,"Trombity",52.1102470000,21.0050310000
746,03,"Bokserska",52.1693820000,20.9982170000
8109,05,"Winnica",52.3405790000,20.9500470000
1575,01,"Ambaras",52.3408770000,20.9996840000
4966,01,"Gawronia",52.1854720000,21.1595370000
1445,01,"Żubrowa-UKSW",52.3111680000,20.9159670000
7630,10,"Kino Femina",52.2415090000,20.9939480000
2715,04,"Sierakowska",52.2956040000,20.8042090000
5201,01,"Pęchery",52.0085140000,21.0011850000
2119,02,"Rembertów-Kolonia",52.2568770000,21.1771670000
8779,01,"Os. Staszica /pętla",52.1539000000,20.7926130000
4469,02,"Sobieskiego",52.4054600000,21.1160230000
5173,02,"Kozaków",52.0625330000,20.8452490000
71,01,"Bełzy",52.1952620000,20.8743600000
6471,02,"Nowe Wągrodno",51.9431910000,21.0349420000
4095,01,"Warszawska",52.4159980000,20.9644720000
8272,01,"Majdan",52.3242350000,21.2854540000
5625,02,"Willowa",52.3632860000,21.2814740000
2337,01,"Peonii",52.1866900000,21.1288540000
5397,01,"Janki Małe",52.1289900000,20.8835500000
1493,01,"Śliwice",52.2781460000,21.0119720000
7681,06,"Radiowa",52.2528630000,20.9144080000
7756,03,"Inżynierska",52.2576100000,21.0341700000
1592,02,"Cementownia",52.3115450000,20.9957570000
571,02,"Klarysewska",52.1846200000,21.0602770000
7990,00,"R3(M)",52.1885000000,20.9999060000
5106,02,"Kasztanowa",52.0198590000,21.0905180000
9636,01,"Jana Heweliusza",52.2245460000,20.8813280000
1436,01,"Opłotek",52.2923140000,20.9022060000
5725,02,"Puszczyka",52.4027130000,20.8176810000
1675,02,"Porajów",52.3153800000,20.9621060000
6196,02,"1 Sierpnia",52.1959410000,20.9629750000
2491,03,"Traugutta",52.1838680000,20.8400830000
5643,02,"PKP Wołomin Słoneczna",52.3569250000,21.2549610000
2889,02,"Tarniny",52.1721880000,21.0113800000
8941,01,"Parole-Pętla",52.0401380000,20.8151140000
6291,01,"Jagiełły",52.3220700000,21.1140210000
8931,02,"CH  Reduta",52.2116650000,20.9502390000
9429,04,"Zawodzie",52.1844900000,21.0818900000
8020,08,"Ciepłownia Wola",52.2208070000,20.9178740000
2130,02,"Dziewanowska",52.2716730000,21.1536830000
4202,02,"Wierzbowa",52.0371840000,20.9321730000
8491,80,"Warszawa Gocławek",52.2386320000,21.1326970000
5813,02,"POLMO",52.3317350000,20.9019070000
629,04,"Dunikowskiego",52.1545740000,21.0298610000
6235,03,"Sielce",52.2071820000,21.0505590000
4715,03,"Powstańców",52.2783680000,21.1172700000
7865,03,"Hoża",52.2272650000,21.0132430000
3386,01,"11 Listopada",52.2665630000,21.0377970000
1747,02,"Wielkiego Dębu",52.3075680000,21.0299910000
610,05,"Ursynów Płn.",52.1620310000,21.0369440000
2526,01,"Struga",52.3584920000,21.1341400000
3237,02,"Prusa",52.2497030000,20.8662360000
4404,01,"Wólka Załęska",52.0116160000,21.1952420000
9741,52,"Zesłańców Polskich",52.2653690000,21.1484370000
2549,04,"PKP Falenica",52.1613140000,21.2132860000
2576,01,"Tysiąclecia",52.1061320000,21.2378210000
3739,02,"Szkolna",52.1296770000,21.4223360000
7559,03,"Niedźwiedzia",52.1763170000,21.0208170000
7673,07,"Rondo Daszyńskiego",52.2301380000,20.9835170000
5299,01,"Kolonia Sobików",51.9709460000,21.1551290000
7052,02,"Kalwaryjska",51.9818350000,21.2085790000
850,03,"Krucza",52.2302470000,21.0165380000
6841,01,"Mickiewicza",52.1903740000,21.2801990000
4542,01,"Instytut Ekologii PAN",52.3461700000,20.8570300000
3342,02,"Piusa XI",52.4107820000,20.9002020000
3368,02,"Kościuszki",52.3198910000,21.0952220000
8046,14,"PKP Służewiec",52.1818700000,20.9889570000
2950,02,"Wapowskiego",52.1906770000,20.8920050000
6357,02,"Augustówek",52.3416160000,21.0673550000
7919,03,"Al. Reymonta",52.2757090000,20.9377630000
4739,03,"Picassa",52.3126560000,20.9579000000
2135,02,"Szyszaków",52.2730990000,21.1579500000
6589,02,"Łąkowa",52.0006780000,21.0454550000
4919,02,"Posag 7 Panien",52.2027520000,20.8733240000
645,02,"Braci Wagów",52.1437130000,21.0481700000
8010,06,"Zajezdnia Wola",52.2351720000,20.9735250000
7628,06,"Nowolipki",52.2444720000,20.9913700000
2122,02,"Eskulapów",52.2604340000,21.1635330000
1044,03,"Os. Górczewska",52.2394110000,20.8975730000
7867,08,"Pl. Bankowy",52.2432170000,21.0027560000
2328,01,"Cylichowska",52.1931690000,21.1384330000
1674,01,"Marki-Ratusz",52.3261500000,21.1075150000
2573,02,"Błota",52.1501460000,21.1886180000
9793,01,"Sowia Wola-Szkoła",52.3607810000,20.6421340000
9,05,"Hynka",52.1897360000,20.9589560000
2847,01,"Małe Siekierki",52.2030720000,21.0667290000
5669,01,"Wenus",52.0953980000,21.0524700000
4900,01,"Walerego Sławka",52.1973110000,20.8976330000
519,01,"Andrutowa",52.1231140000,21.0983710000
6277,03,"Wynalazek",52.1794580000,20.9955310000
2479,01,"Kino Baśń",52.1866610000,20.8447270000
7888,07,"Szpital Wolski",52.2291680000,20.9695900000
1461,02,"Przasnyska",52.2612330000,20.9668110000
1931,10,"Żerań FSO",52.2912240000,21.0008180000
8890,01,"Łady-Szkoła",52.1273480000,20.9613000000
7926,02,"Zajezdnia Praga",52.2560470000,21.0527930000
4309,01,"Sikorskiego",52.2871940000,21.1207310000
4461,01,"PKP Dąbkowizna",52.4235770000,21.0834120000
2753,01,"Wygoda",52.0596730000,20.8696200000
6273,02,"Czarnuszki",52.1587770000,21.1724780000
6402,03,"Metro Stare Bielany",52.2807880000,20.9501280000
6171,06,"Os. Kabaty",52.1289920000,21.0680270000
6823,03,"Słoneczników",52.0105490600,20.9625671100
5617,01,"Cieciszew-Las",52.0639320000,21.1700470000
5016,01,"Dębówka II",52.0447140000,21.1960210000
3498,01,"Brata Alberta",52.2469500000,21.1875800000
3103,02,"Baseny Inflancka",52.2562850000,20.9863210000
763,01,"Wiolinowa",52.1583740000,21.0306240000
4497,01,"Przemysłowa",52.4312070000,20.7467940000
415,02,"Spartańska",52.1928570000,20.9957500000
6383,01,"Urząd Gminy",52.0899280000,20.9366550000
1727,02,"Oknicka",52.3225100000,21.0793270000
6282,04,"Pustelnik",52.3396110000,21.1168320000
2655,02,"Nizinna",52.2231250000,21.2379860000
841,03,"Dw. Gdański",52.2574930000,20.9938140000
6832,01,"Działkowa",51.9444030000,20.9902640000
7976,04,"Kwatery Głównej",52.2396470000,21.1151770000
1003,02,"Biblioteka Narodowa",52.2135220000,21.0064200000
1197,01,"Pl. Kasztelański",52.2310640000,20.9147940000
1248,01,"Pl. Inwalidów",52.2643060000,20.9902520000
1340,01,"Galla Anonima",52.2691410000,20.9430150000
7512,02,"Lipowczana",52.1834480000,20.9517350000
2756,01,"Łazy",52.0827960000,20.8787080000
568,02,"Os. Bernardyńska",52.1925670000,21.0624950000
1105,01,"Wola-Ratusz",52.2399650000,20.9880830000
5168,02,"Wierna",52.2733800000,21.0864910000
9186,06,"Nałęczowska",52.1760680000,21.0619270000
6032,02,"Goleszowska",52.2234440000,20.9408790000
721,02,"Wołoska-Szpital",52.1995680000,21.0012560000
538,06,"Sadyba",52.1815100000,21.0688300000
3459,01,"Słowackiego",52.3996690000,20.9419190000
4196,01,"Zaleśna",52.0594850000,20.9802900000
4804,02,"Pl. Ostrej Bramy",52.2758060000,21.0827050000
6665,01,"Spacerowa",52.3593830000,20.6350420000
8539,80,"Sochaczew",52.2016616463,20.6956835953
5246,01,"Cmentarz",52.3381160000,21.2042740000
1149,06,"Metro Księcia Janusza",52.2394990000,20.9459260000
4336,01,"Gassy-Pętla",52.0797990000,21.2019290000
6217,02,"Stare Grabie II",52.3670330000,21.3233940000
2169,02,"Tarnowiecka",52.2367200000,21.1064200000
405,01,"Domaniewska",52.1827020000,21.0019470000
8407,06,"Deotymy",52.2470740000,20.9479870000
8553,80,"Pilawa",52.0997388850,21.3015685655
879,01,"Czerniakowska",52.2303770000,21.0337130000
9012,01,"Ks. Skorupki",52.3231140000,21.2172170000
5378,02,"Łbiska-Szkoła",52.0204340000,21.0051870000
3633,05,"PKP Ursus",52.1948480000,20.8852670000
1574,01,"Żyrardowska",52.3448160000,20.9983430000
5422,04,"Buków",52.3563390000,20.9413230000
4891,02,"Krzywickiego",52.2232380000,21.0013750000
2895,04,"Muranów",52.2492690000,20.9981060000
731,02,"Rondo Unii Europejskiej",52.1785150000,21.0008360000
1888,02,"Siarczana",52.2613930000,21.0662480000
3854,02,"Kameralna",52.1024150000,21.0499870000
4881,04,"Posag 7 Panien",52.2024660000,20.8747820000
1934,13,"Żerań FSO",52.2914860000,21.0002380000
7664,03,"Elekcyjna",52.2296630000,20.9516880000
3190,01,"Kolonia Lesznowola",52.0755440000,20.9664210000
337,01,"Herbsta",52.1508320000,21.0273930000
5365,01,"Pl. Wolności",52.4202320000,21.0346190000
5611,02,"Ogrodowa",52.1034100000,21.0405960000
2897,02,"Elbląska",52.2594920000,20.9605760000
4735,01,"Blokowa",52.2859540000,21.0630510000
1778,03,"Handlowa",52.2730760000,21.0541380000
4288,02,"Park Młociński",52.3150130000,20.9205620000
3225,02,"Lipków",52.2737230000,20.8075620000
3924,01,"Sosnkowskiego",52.2950810000,21.0914810000
9066,03,"Pl. Hallera",52.2591930000,21.0252330000
4736,02,"Kanał Bródnowski",52.2839240000,21.0568560000
6412,02,"Jarzębinowa",51.9434820000,21.0117990000
5615,01,"Cmentarz",51.9846170000,21.1957400000
1508,01,"Poetów",52.3431600000,20.9516800000
761,02,"Wyczółki",52.1584250000,21.0021760000
891,03,"Nowolipki",52.2449590000,20.9921140000
252,02,"Os. Arbuzowa",52.1715730000,21.0604380000
5729,02,"Sołecka",52.4077470000,20.7927030000
2954,02,"Starodęby",52.1839410000,20.8970750000
1236,02,"Brożka",52.2438200000,20.9443200000
4361,02,"Olszyna Łyczyńska",52.0729530000,21.1582150000
8796,02,"Cm. Południowy-Brama Zach.",52.0601910000,20.8947710000
7588,07,"Dw. Centralny",52.2281250000,21.0038180000
8889,02,"Łady-Szkoła",52.1281260000,20.9630240000
5780,02,"Karowa",52.2447800000,21.0242850000
5641,01,"Pułaskiego",52.0846740000,21.0825800000
4659,11,"Dw. Wschodni (Lubelska)",52.2500930000,21.0530330000
9507,02,"Polnych Traw",52.0601000000,21.0701450000
4212,01,"Górki",52.3910080000,21.1612260000
3997,02,"Izbicka-Cmentarz",52.1818370000,21.2285270000
2213,01,"Bora-Komorowskiego",52.2246900000,21.0933440000
4593,04,"Os. Derby",52.3161630000,21.0597860000
4017,01,"Patkowskiego",52.1722490000,21.0564690000
4802,01,"Ku Wiśle",52.2122100000,21.0636210000
298,01,"Sypniewska",52.1905830000,21.0757170000
1428,18,"Metro Młociny",52.2912860000,20.9279950000
4146,02,"Poniatów",52.4533800000,20.9197140000
30,01,"PKP WKD Al. Jerozolimskie",52.2057600000,20.9432160000
7563,04,"Metro Wierzbno",52.1891050000,21.0180010000
668,02,"Kusocińskiego",52.0797860000,21.0215900000
757,04,"Wąwozowa",52.1329920000,21.0745570000
4595,01,"Przyszłość",52.3941300000,21.0451660000
7634,03,"Hala Mirowska",52.2381330000,20.9961960000
4640,02,"Kierbedzia",52.1994960000,21.0463670000
5161,01,"Główna",52.0548310000,21.0413940000
5401,01,"Zielonej Gęsi",52.2073680000,20.8595980000
5731,02,"Suchocin",52.4105540000,20.7786960000
3738,01,"Szkolna",52.1297650000,21.4232190000
2925,01,"Narodowa",52.2140460000,21.1020940000
2300,01,"Jontka",52.1828690000,21.2062100000
4515,01,"Sosenkowa",52.4004110000,21.0584120000
7583,03,"Domaniewska",52.1824980000,21.0021600000
3222,02,"Lipowa",52.1062100000,20.8020700000
5546,02,"Mostowa",52.3600450000,21.1732790000
1691,01,"Parkowa",52.4065820000,20.9192090000
4057,03,"Nowodworska",52.3206340000,20.9413460000
4581,02,"Talarowa",52.3270200000,20.9507020000
2732,02,"Kajetany",52.0921580000,20.8142630000
8500,80,"Otwock Świder",52.1210180000,21.2515860000
3324,02,"Koncertowa",52.1656370000,21.0274370000
3046,02,"Radzymińska",52.3008210000,21.0869550000
3195,01,"Zielona",52.0677880000,20.9340100000
4516,02,"Sosenkowa",52.4009990000,21.0585970000
611,06,"Ursynów Płn.",52.1619250000,21.0369760000
5202,01,"Bociana Czarnego",52.0668570000,21.0904390000
2295,02,"Zasobna",52.1834990000,21.1719360000
7892,13,"Os. Górczewska",52.2386780000,20.9008610000
9053,04,"Pl. Pole Elekcyjne",52.2446270000,20.9655960000
4525,02,"Marzycieli",52.3961050000,21.0000230000
8624,02,"Kościelna",52.4087930000,20.8861930000
3908,06,"Metro Ratusz Arsenał",52.2449120000,21.0021520000
1728,01,"Okrągła",52.3171890000,21.0672000000
186,06,"Pl. Starynkiewicza",52.2275470000,20.9952840000
834,03,"Muranów",52.2491610000,20.9979470000
5900,02,"Flamenco",52.1441570000,21.0107890000
5858,02,"Łomna-Kościół",52.3792670000,20.7839510000
847,01,"Zamenhofa",52.2465620000,20.9969450000
9183,03,"Czarnomorska",52.1854980000,21.0519160000
167,01,"Pomnik Lotnika",52.2155620000,20.9881370000
1681,02,"Braci Zawadzkich",52.3246470000,20.9698220000
6698,01,"Wiśniowa",52.3706680000,20.7940330000
6233,02,"Przy Bażantarni",52.1378700000,21.0650300000
9262,02,"Długosza",52.0614100000,21.0031060000
3407,02,"Pogodna",52.2160750000,21.2383550000
6451,02,"Indiry Gandhi",52.1421970000,21.0301860000
3973,01,"Zalesie",52.2595660000,20.7523760000
2352,01,"Most Siekierkowski",52.2175450000,21.0969250000
1078,01,"Pustola",52.2328600000,20.9413540000
7509,04,"PKP Rakowiec",52.1971020000,20.9642730000
9315,01,"Św. Antoniego",52.0557880000,20.9060420000
5212,04,"Turów",52.3153600000,21.1935910000
1346,01,"Młociny-UKSW",52.3128860000,20.9171250000
2532,04,"Struga",52.3590350000,21.1341280000
4547,01,"Szeroka",52.0323620000,20.8221680000
2551,01,"Aleksandrów",52.1699170000,21.2422130000
1757,03,"Szpital Bródnowski",52.2920230000,21.0414610000
3262,02,"Wiosenna",52.2604680000,20.6876390000
2619,01,"Rejtana",52.2466820000,21.2135560000
8895,02,"Kościuszki-Szkoła",52.2937040000,20.8097230000
5266,01,"Robotnicza",52.2178240000,20.8001570000
7081,01,"Mińska",52.2505120000,21.0664430000
354,01,"Kępa Zawadowska",52.1457880000,21.1381840000
5604,05,"Elekcyjna",52.2302520000,20.9497540000
1967,01,"Gocławska",52.2467390000,21.0624560000
3082,01,"Karolin",52.2163690000,20.8816960000
6211,02,"Śpiewaków",52.3317510000,20.9874940000
464,03,"Wyścigi",52.1676510000,21.0136580000
2379,01,"Motylkowa",52.2009590000,21.1496960000
9686,01,"Kamionek",52.2536890000,21.0721690000
1027,01,"Konarskiego",52.2397050000,20.9196290000
1716,02,"Bystra",52.2946900000,21.0818820000
2771,01,"Lipy",52.4071050000,21.0382660000
1673,01,"Szkolna",52.3171870000,21.1000920000
3700,02,"Al. Sybiraków",52.4107320000,20.9506320000
8757,16,"Pl. Narutowicza",52.2176670000,20.9826050000
2490,02,"Traugutta",52.1852180000,20.8401030000
4610,02,"Czołchańskiego",51.9407780000,20.9620880000
3462,01,"Szpital Powiatowy",52.0977510000,21.2647260000
5870,01,"Cząstków Polski",52.3897930000,20.7549410000
7531,03,"Och-Teatr",52.2143040000,20.9794010000
6646,06,"PKP Piaseczno",52.0674690000,21.0174190000
4281,02,"Lokalna",52.0692950000,20.8932680000
5026,01,"Hassa",52.1889100000,20.8985400000
1204,01,"Wrocławska",52.2580580000,20.9209250000
3084,01,"Pl. Małachowskiego",52.2392470000,21.0124390000
2987,02,"Berensona",52.3233320000,21.0487160000
3470,01,"Szarych Szeregów",52.3839100000,20.9241390000
4379,02,"Kawęczynek I",52.0462450000,21.1380800000
4286,01,"Orężna",52.0695140000,20.9913670000
3826,01,"Leśna",52.3756250000,20.9380390000
1815,01,"Parcelacyjna",52.3466040000,20.9754310000
1791,02,"Św. Hieronima",52.2925500000,21.0232970000
8160,02,"Lipowa",51.9768690000,20.9521890000
5629,01,"Zadębie",51.9354080000,21.0129220000
2531,02,"Legionowa",52.3618730000,21.1219890000
1482,01,"Rosy",52.1314970000,21.1352340000
8817,05,"Pl. Zawiszy",52.2252650000,20.9905110000
4352,01,"Os. Grapa",52.0876800000,21.1243740000
3443,02,"OW Promenada",52.4644520000,21.0752570000
4324,02,"Habdzin II",52.0937170000,21.1591260000
7868,07,"Muranowska",52.2540830000,20.9977310000
2488,01,"Dąbrowskiego",52.1893950000,20.8403230000
5228,01,"Dworkowa",52.3293890000,21.1702500000
8234,02,"Graniczka",52.3489340000,20.8622380000
747,05,"Bokserska",52.1697570000,20.9964320000
7915,04,"Aspekt",52.2783220000,20.9336400000
3221,02,"Jodłowa",52.1159110000,20.7987050000
8033,15,"Dw. Wschodni (Kijowska)",52.2528290000,21.0499450000
1811,01,"Cementownia",52.3107980000,20.9923960000
346,01,"Europejska",52.1607450000,21.0929190000
4630,01,"Biały Ług",51.9486400000,21.0539410000
2498,01,"Skolimów",52.0773020000,21.1014880000
1287,01,"Kwitnąca",52.2752950000,20.9231050000
1566,01,"Zyndrama z Maszkowic",52.3272910000,20.9910490000
8405,75,"Sielce",52.2070230000,21.0477200000
8000,01,"Hale Banacha",52.2086000000,20.9744860000
7844,03,"Raszyńska",52.2191970000,20.9889990000
8557,80,"Mińsk Maz.",52.2415483205,21.3037440423
198,01,"Mołdawska",52.2018540000,20.9792790000
2436,01,"Długa",52.1342100000,20.9746200000
9770,01,"Wojcieszyn-Wspólna",52.2592740000,20.7688170000
4522,01,"Akacjowa",52.3936700000,21.0054950000
4958,01,"Podłęcze",52.0375120000,21.2037320000
4603,01,"Słowicza",52.0094180000,21.0396920000
853,01,"DS Riviera",52.2159030000,21.0153020000
4067,01,"Naczelnikowska",52.2634380000,21.0571430000
2822,02,"Berestecka",52.2119030000,20.9518220000
3797,04,"Natolin Płn.",52.1458980000,21.0513940000
318,03,"Smoluchowskiego",52.1798710000,21.0151700000
3201,02,"Kuleszówka",52.0601850000,20.9103030000
1845,02,"Rembielińska",52.2884580000,21.0314350000
1399,02,"Mościska",52.2871500000,20.8774440000
7538,03,"Pl. Starynkiewicza",52.2262810000,20.9951890000
2846,02,"Ogrody Działkowe Czerniaków",52.2016650000,21.0609760000
1228,04,"Nowolipie",52.2439580000,20.9868860000
3102,01,"Baseny Inflancka",52.2565130000,20.9882800000
6632,01,"Kąty",52.0022030000,21.1705860000
6884,01,"Paderewskiego",52.2947990000,21.1588900000
2463,02,"Podleśna",52.0923070000,20.8820910000
6427,01,"Przylesie",52.3460960000,20.9557510000
2350,02,"Algierska",52.2215140000,21.0801020000
1497,01,"EC Żerań",52.2953470000,20.9974710000
491,03,"Św. Bonifacego",52.1822340000,21.0567750000
2620,03,"Wesoła-Ratusz",52.2458100000,21.2230140000
4514,01,"Pęczkowskiego",52.4086490000,21.0578330000
7068,01,"Polna",51.9514000000,21.0836600000
4887,02,"Dworkowa",52.3311390000,21.1709720000
5262,02,"Nowinek",52.0166720000,21.0406610000
3308,01,"Łanowa",52.0176760000,20.8848630000
7287,03,"Winnica",52.3409370000,20.9486560000
1511,02,"Wojnicka",52.2570210000,21.0551440000
3294,02,"Szkolna",52.1706560000,21.2959540000
6825,01,"Werbeny",52.0059389400,20.9583210800
5491,02,"Ossów-Szkoła",52.3105000000,21.2166260000
4430,02,"Fort Bema",52.2588370000,20.9355290000
3657,08,"Gocław",52.2235360000,21.1017440000
8172,06,"Kijowska",52.2500780000,21.0438480000
4907,01,"Nowaka-Jeziorańskiego",52.2312300000,21.0942030000
2111,02,"Strażacka",52.2590670000,21.1329790000
2277,01,"Grenadierów",52.2436390000,21.0784810000
968,01,"Zaruskiego",52.2187190000,21.0455460000
2126,02,"Rembertów-Akademia",52.2640420000,21.1691640000
807,02,"Marszałkowska",52.2180910000,21.0197080000
1067,02,"Arkadyjska",52.2513540000,20.8808920000
2064,02,"Sezam",52.2393650000,21.1533870000
5943,01,"Smocza",52.2455890000,20.9856410000
3626,01,"Jadwisin",52.1940530000,20.9695260000
4759,11,"PKP Ursus",52.1962430000,20.8819540000
8897,02,"Gołków-Wieś",52.0459530000,20.9783830000
5311,02,"Szymanów",52.0430330000,21.1142190000
2772,02,"Urząd Gminy",52.4213960000,21.0356060000
1311,01,"Os. Ruda",52.2848860000,20.9791160000
4596,02,"Przyszłość",52.3944150000,21.0451620000
4180,01,"Koralowych Dębów",52.0282200000,21.0291300000
1444,02,"Dankowicka",52.3094390000,20.9116080000
340,05,"Polinezyjska",52.1508110000,21.0482820000
8803,02,"Św. U. Ledóchowskiej",52.1543050000,21.0698430000
1341,02,"Hłaski",52.2774160000,20.9700630000
8151,01,"Cmentarz",52.3744150000,21.2388590000
4399,01,"Kawęczyn II",52.0385610000,21.1765890000
2529,02,"Pustelnik",52.3397690000,21.1190240000
1537,02,"Jórskiego",52.2775120000,21.0678130000
1697,02,"Szkolna",52.3755660000,20.9242880000
5390,01,"Dąbrowskiego",52.3167320000,21.1888060000
528,01,"Al. Witosa",52.1962570000,21.0524390000
8809,14,"Pl. Zawiszy",52.2259870000,20.9881960000
8909,02,"CH  Targówek",52.3039410000,21.0598380000
3922,02,"Terminal Autokarowy",52.1680860000,20.9751850000
4538,02,"PKP Płudy",52.3344010000,20.9858150000
7694,04,"Niska",52.2486100000,20.9791970000
1695,01,"Sobieskiego",52.3877550000,20.9285720000
6714,02,"Zakrętowa",52.2160070000,21.2563210000
2455,01,"Łady",52.1254860000,20.9550750000
5300,02,"Kolonia Sobików",51.9708930000,21.1549930000
9479,02,"Oś Królewska",52.1655350000,21.0698010000
4253,01,"Postępu",52.0309140000,20.8376690000
8478,80,"Pruszków",52.1682230000,20.7989470000
3974,02,"Zalesie",52.2595080000,20.7535280000
2231,02,"Afrykańska",52.2254750000,21.0691760000
663,02,"Energetyczna",52.0887110000,21.0193010000
626,01,"Megasam",52.1580810000,21.0212150000
3196,02,"Zielona",52.0682190000,20.9341080000
7889,08,"Szpital Wolski",52.2296770000,20.9695370000
58,02,"Ursus-Ratusz",52.2008890000,20.8961570000
5444,03,"Lazurowa",52.2157360000,20.8959470000
1487,04,"Estrady",52.2991730000,20.8831150000
2797,01,"Park Moczydło",52.2383890000,20.9499140000
4546,04,"Prozy",52.3008200000,20.9384710000
4487,01,"Pijarska",51.9867640000,21.2140910000
2745,02,"Radiostacja Łazy",52.0734000000,20.8746360000
4794,01,"Zaborowska",52.2130310000,20.6915430000
5710,01,"Waryńskiego",52.3553670000,21.2485730000
4135,01,"Fabryczna",52.4191340000,20.9461850000
2061,01,"PKP Gocławek",52.2390130000,21.1317300000
3881,03,"Juranda ze Spychowa",52.3178960000,21.0497430000
1984,01,"Gdecka",52.2409000000,21.1011600000
7777,04,"Gocławska",52.2464820000,21.0645550000
2104,06,"PKP Rembertów",52.2578090000,21.1596450000
2652,01,"Gwarna",52.2218790000,21.2767770000
3450,07,"Gocław",52.2223640000,21.1005200000
6593,03,"Pileckiego",52.1416450000,21.0388780000
3665,01,"Buków",52.3554200000,20.9414150000
3524,01,"Szancera",52.1948860000,20.8996840000
6883,02,"PKP Zielonka Bankowa",52.2927080000,21.1556890000
1798,02,"PKP Toruńska",52.2934070000,21.0135380000
1333,02,"Klaudyn",52.2753110000,20.8668760000
5143,01,"Henryka Brodatego",52.1937670000,20.8600970000
1676,01,"Picassa",52.3133440000,20.9582280000
1385,02,"Muzealna",52.3063450000,20.9324960000
2393,01,"Sierakowskiego",52.2500130000,21.0308290000
3033,01,"PKP Ursus Płn.",52.2058230000,20.8885780000
6797,02,"Zagościniec-Szkoła",52.3722130000,21.2692910000
3529,02,"Groty",52.2486410000,20.8762880000
7610,03,"Dzika",52.2526990000,20.9903130000
4687,02,"Dzikiej Róży",52.0914130000,20.9785200000
1774,09,"Metro Trocka",52.2766710000,21.0527870000
903,01,"Dzika",52.2528750000,20.9908060000
3123,03,"Nowe Włochy",52.2092850000,20.8943280000
2263,02,"Kinowa",52.2423610000,21.0726150000
5988,02,"Paderewskiego",52.2946810000,21.1595050000
2279,04,"Os. Majdańska",52.2390690000,21.0844060000
4813,01,"Runowska",52.0113000000,20.8997500000
9433,80,"Warszawa Gołąbki",52.2084080000,20.8640850000
2758,01,"Koprki",52.2117380000,20.7418200000
8762,07,"Pl. Zawiszy",52.2236810000,20.9913330000
9045,02,"Orszagha-Tunel",52.3332970000,21.2120680000
300,01,"Batumi",52.1804330000,21.0539850000
1895,01,"Śnieżna",52.2597410000,21.0527880000
716,03,"Odyńca",52.1961270000,21.0147200000
6853,01,"Dębowa",51.9712040000,21.0461520000
3128,01,"Hospicjum Onkologiczne",52.1436110000,21.0382370000
1238,01,"Znana",52.2337640000,20.9293570000
5038,02,"Bohuna",52.3213790000,21.0494820000
7572,03,"Kulskiego",52.2019270000,21.0003220000
7728,04,"Cm. Wawrzyszewski",52.2801840000,20.9284380000
881,04,"PKP Powiśle",52.2346890000,21.0302660000
5584,02,"Dawidy",52.1303790000,20.9855180000
7597,10,"Centrum",52.2299750000,21.0123650000
477,01,"Dąbrówka",52.1050380000,21.0183830000
4781,02,"Żyzna",52.2307160000,20.7795740000
1843,05,"Metro Bródno",52.2935210000,21.0263560000
2108,02,"Kordiana",52.2596310000,21.1549180000
9077,01,"Pl. Powstańców Warszawy",52.2365720000,21.0132230000
7998,01,"Os. Zielony Staw",52.2467400000,20.9062120000
5955,01,"Hubala",52.3153060000,21.1851510000
8514,80,"Wyszków",52.4006918263,21.2824743474
2331,01,"Odrębna",52.1808000000,21.1483560000
4733,03,"Rolanda",52.2834780000,21.0547200000
7940,02,"Annopol",52.2985110000,21.0217900000
3438,01,"Bielańska",52.2446960000,21.0049190000
3352,02,"Kościuszki",52.1652690000,20.8053810000
8925,01,"Zaborówek-Wieś",52.2618890000,20.6279330000
8087,07,"Radiowa",52.2516630000,20.9146570000
5732,01,"Suchocin",52.4100950000,20.7804890000
4809,01,"Sadowa",52.0287100000,20.9134560000
7693,03,"Niska",52.2488220000,20.9792060000
4671,04,"Metro Służew",52.1738700000,21.0263340000
4359,02,"Baczyńskiego",52.0758540000,21.1527230000
5926,02,"Miejski Ośrodek Kultury",52.3379780000,21.2098890000
6524,02,"Białołęka Dworska",52.3363540000,21.0027220000
5922,01,"Stare Kabaty",52.1304820000,21.0841990000
456,08,"Metro Wilanowska",52.1800060000,21.0200710000
8530,80,"Warszawa Targówek",52.2642510000,21.0517480000
8930,04,"CH  Ursynów",52.1426380000,21.0219540000
1402,01,"Wólka Węglowa",52.3028930000,20.8830160000
574,02,"Stegny",52.1775220000,21.0464060000
8744,17,"P+R Al. Krakowska",52.1751460000,20.9440260000
2469,01,"Śmigielska",52.1982470000,20.8705550000
2232,02,"Ateńska",52.2243630000,21.0657480000
5237,01,"Radzymińska",52.3486650000,21.1977840000
4529,02,"Wolska I",52.4032760000,20.9890290000
2194,03,"Chłopickiego",52.2463630000,21.1047600000
4613,02,"Ogrodowa",51.9497863000,21.0179446400
9621,02,"Piskórka",51.9875520000,21.0033420000
9328,02,"Wiśniowa Góra",52.2097890000,21.2051040000
2917,02,"Rakowiecka-Sanktuarium",52.2063810000,20.9992810000
5741,02,"Akacjowa",52.4229420000,20.7261340000
3847,01,"Parole",52.0364530000,20.8215810000
8513,80,"Tłuszcz",52.3987149782,21.2832681024
4116,02,"Przedpełskiego",52.4622160000,20.9442590000
5194,02,"Główna",52.0385320000,20.9962620000
866,02,"Franciszkańska",52.2521370000,21.0017310000
3717,01,"Kąty Węgierskie",52.3878070000,21.0143270000
5658,01,"Przy Parku",52.2772970000,20.8045080000
282,02,"Gąsocińska",52.2063730000,21.0745470000
7814,06,"Piastów Śląskich",52.2638800000,20.9281650000
8455,80,"Warszawa Rakowiec",52.1967840000,20.9661360000
7646,03,"Wawrzyszewska",52.2463190000,20.9623390000
882,02,"Książęca",52.2307660000,21.0304410000
6470,01,"OSP Nowy Prażmów",51.9674264800,20.9504776200
7933,01,"Faradaya",52.3083410000,21.0158440000
6026,01,"Wrzosowa",52.3725360000,21.1608650000
5670,02,"Dworkowa",52.3702660000,20.9353300000
2808,01,"Metro Ratusz Arsenał",52.2455250000,20.9999420000
3649,02,"Melcera",52.1839440000,20.8854290000
2016,01,"Bielszowicka",52.2068870000,21.1856810000
6878,02,"Bukowska",52.3517700000,20.9263670000
6166,01,"Karłowicza",52.3419680000,21.1082010000
5628,02,"Zadębie",51.9347730000,21.0132760000
4607,01,"Ogrodowa",51.9492240000,21.0171020000
5851,02,"Pieńków-Wieś",52.3756700000,20.8054520000
7640,03,"Nowowiejska",52.2205820000,21.0048480000
1081,01,"Antka Rozpylacza",52.2342820000,20.9350490000
1265,02,"Popiela",52.2820290000,20.9208790000
4716,04,"Powstańców",52.2783350000,21.1178140000
4993,01,"Imbirowa",51.9954990000,20.9295920000
6034,02,"Gizów",52.2246750000,20.9448290000
1200,01,"Radiowa",52.2516880000,20.9125090000
2617,02,"Grzybowa",52.2477130000,21.1991360000
3568,02,"Kartezjusza",52.2498280000,20.8936950000
2919,02,"Kulskiego",52.2022470000,21.0005040000
6626,01,"Baniocha-Marki",52.0162000000,21.1401920000
4601,03,"Rembelszczyzna",52.3775560000,21.0302490000
3659,01,"Staszica",52.2396730000,21.2222650000
8480,80,"Warszawa Zachodnia",52.2201410000,20.9649750000
886,02,"Szwoleżerów",52.2153910000,21.0462960000
6826,02,"Podleśna",51.9874767900,20.9469448200
5874,01,"Czosnów",52.3901270000,20.7331710000
307,01,"Tango",52.1539670000,21.0118710000
2929,02,"Pl. Unii Lubelskiej",52.2123810000,21.0191260000
5847,01,"Strzelecka",52.3525980000,20.8310890000
5312,04,"Borowina I",52.0523630000,21.1119630000
2043,02,"Wielowiejska",52.1784670000,21.1939970000
8082,04,"Kazubów",52.2428220000,20.9124230000
665,03,"Lamina",52.0822750000,21.0225980000
2250,02,"Radość-Wodociąg",52.1984390000,21.1750100000
1627,02,"Kopijników",52.3003380000,21.0319800000
7784,05,"Wiatraczna",52.2454200000,21.0825470000
2723,01,"Głosków-Szkoła",52.0368910000,20.9437500000
2528,02,"Hallera",52.3442530000,21.1226370000
8219,03,"Postępu",52.0806620000,20.9675810000
343,01,"Natolin Płn.",52.1468140000,21.0546190000
3442,01,"Główna",52.4718530000,21.0695010000
5517,01,"Calowa",52.1418830000,21.1481940000
4824,01,"Sielska",52.3802120000,21.0405860000
5645,03,"Sowińskiego",52.2254070000,20.9377690000
7903,04,"Powązkowska",52.2535860000,20.9814060000
3072,01,"Rembertów-Kolonia",52.2569810000,21.1771760000
3219,02,"Komorowska",52.1068260000,20.8138190000
6400,04,"PKP Jeziorki",52.1099320000,20.9924430000
3378,02,"Tymotki",52.3553270000,21.0535340000
6418,04,"Metro Księcia Janusza",52.2387290000,20.9428960000
756,02,"Zaruby",52.1318120000,21.0704310000
8753,01,"Pl. Narutowicza",52.2203960000,20.9849850000
6829,02,"Leśna",51.9420450000,20.9790600000
59,02,"Przepiórki",52.2028540000,20.9036980000
6463,01,"Ostapowicza",51.9443555400,20.9518741300
1201,03,"Radiowa",52.2515050000,20.9147000000
3247,03,"Przy Parku",52.2772510000,20.8025800000
1318,02,"PKP Powązki",52.2561370000,20.9692910000
874,01,"Dobra",52.2436200000,21.0221700000
9013,02,"Ks. Skorupki",52.3229170000,21.2183580000
4329,02,"Habdzin IV",52.0927010000,21.1761490000
6827,01,"Podleśna",51.9871538800,20.9467284800
2999,02,"Aroniowa",52.3531930000,21.0386480000
824,03,"Metro Świętokrzyska",52.2348690000,21.0072220000
3735,02,"Popławska",52.1340510000,21.4528950000
3695,01,"Bandurskiego",52.4142970000,20.9324600000
88,02,"WKD Raków",52.1945230000,20.9361070000
5250,02,"Zachodnia",52.0499000000,21.0058180000
379,02,"Siedliskowa",52.1762640000,21.1071200000
7791,03,"Żółkiewskiego",52.2413130000,21.1078020000
3245,01,"Akacjowa",52.2736190000,20.8019380000
2099,04,"Rekrucka",52.2447290000,21.1386190000
1545,06,"Inżynierska",52.2583930000,21.0333400000
8993,02,"Jeziorki Płn.",52.1236550000,21.0064510000
8554,80,"Sobolew",52.0983302314,21.2975409937
4221,01,"Strumykowa",52.0850520000,21.0446760000
3952,05,"PKP Anin",52.2130510000,21.1580480000
4473,01,"Ekologiczna",52.3990800000,21.1356000000
7567,03,"Samochodowa",52.1888250000,21.0071050000
2977,01,"Piastowska",52.1879280000,20.8735280000
8072,06,"Tarchomin",52.3184820000,20.9528200000
3940,01,"Chęcińska",52.3324130000,20.9581440000
2651,01,"Ogrodnicza",52.2216780000,21.2823310000
8902,01,"CH  Blue City",52.2120380000,20.9548710000
5715,03,"Kościół",52.3409220000,21.1966810000
8507,80,"Warszawa Główna",52.2249530000,20.9846380000
7959,03,"Kawęczyńska-Bazylika",52.2581060000,21.0596610000
5165,01,"Pl. Ostrej Bramy",52.2749530000,21.0834430000
2691,02,"Zakamarek",52.1305030000,21.1143510000
5705,02,"Partyzantów",52.2133950000,20.8112770000
4520,01,"Kościelna-OSP",52.3905590000,21.0137510000
3667,01,"Główna",52.3532020000,20.9410790000
7805,01,"Berezyńska",52.2389140000,21.0552130000
3132,01,"Pogodna",52.2161650000,21.2385200000
1449,02,"Barszczewska",52.2794000000,20.9865340000
7118,02,"Zachodzącego Słońca",52.2590400000,20.9175360000
6529,02,"Warmińska",52.3307880000,21.0264720000
3178,03,"Pustelnik",52.3382540000,21.1190180000
1250,01,"Metro Marymont",52.2717090000,20.9719180000
1781,02,"Kołowa",52.2745660000,21.0430690000
1750,02,"Turmoncka",52.2988150000,21.0329660000
62,01,"Rybnicka",52.2075460000,20.9048790000
208,04,"Szczęśliwice",52.2077940000,20.9636700000
2356,02,"Wodniaków",52.2016760000,21.1296860000
1586,01,"Zielonki",52.2520740000,20.8194680000
1526,01,"Chemiczna",52.2637250000,21.0632130000
2859,03,"Metro Centrum Nauki Kopernik",52.2401650000,21.0310200000
781,02,"Dw. Centralny",52.2282230000,21.0033780000
3986,01,"Orla",52.1077640000,21.2630240000
8344,03,"Magistracka",52.2472760000,20.9528490000
3302,02,"CH Wólka Kosowska",52.0576810000,20.8564820000
5488,01,"Gryczana",52.3336810000,21.2507220000
2748,02,"POD Szczaki",52.0216510000,20.8808070000
5660,04,"Słupno",52.3840190000,21.1564400000
2626,02,"Puszkina",52.2484640000,21.2593480000
5915,02,"Szpital Powiatowy",52.3454120000,21.2212300000
2527,02,"Graniczna",52.3530410000,21.1300420000
8048,04,"Fort Blizne",52.2467450000,20.8996970000
7587,08,"Dw. Centralny",52.2279320000,21.0027370000
3658,02,"Staszica",52.2386610000,21.2220670000
2521,02,"Jurajska",52.1635620000,20.9923630000
3729,02,"Wierzbowa",52.1415980000,21.3866870000
7938,03,"Inowłodzka",52.3014620000,21.0210300000
369,02,"CH Stara Papiernia",52.0906660000,21.1226980000
2278,01,"Os. Majdańska",52.2399580000,21.0816320000
4090,02,"Podleśna",52.2680630000,20.7967290000
4312,01,"Wyspiańskiego",52.2947380000,21.1039210000
3115,01,"Białobrzeska",52.2217860000,20.9783190000
8550,80,"Radom Główny",52.0255195967,21.0368512646
9316,01,"Radomska",52.0532350000,20.9046530000
718,04,"Polskie Radio",52.1931590000,21.0142800000
7861,01,"Pl. Politechniki",52.2200310000,21.0115000000
5341,01,"Bytnara",52.1914820000,21.0015400000
6585,53,"Os. Górczewska",52.2391580000,20.9009980000
8073,06,"Mehoffera",52.3224490000,20.9447420000
5724,01,"Lipowa",52.4010760000,20.8254580000
4645,01,"Os. Las",52.4242490000,21.0337470000
5740,01,"Morawicza",52.4191950000,20.7306480000
6164,02,"Parkowa",52.3449910000,21.0989570000
4182,01,"Przebudzenia Wiosny",52.0319330000,21.0198380000
8844,05,"Pl. Pole Elekcyjne",52.2434410000,20.9664400000
6192,82,"Pl. Ostrej Bramy",52.2758325313,21.0826391702
3229,01,"Thomme",52.2605770000,20.8324360000
9175,04,"Miasteczko Wilanów",52.1564760000,21.0756790000
7078,02,"Agatowa",52.0939890000,21.0338180000
423,01,"Obrzeżna",52.1720930000,20.9990040000
5704,01,"Partyzantów",52.2128460000,20.8110960000
3820,02,"Kisielewskiego",52.3962130000,20.8965030000
3456,03,"Centrum Onkologii",52.1485320000,21.0337810000
2599,02,"Świdry Małe",52.1236780000,21.2007610000
2425,02,"Młyn",52.1588240000,20.9251530000
2926,04,"PKP Ursus-Niedźwiadek",52.1922800000,20.8687700000
3781,04,"Gwiaździsta",52.2870910000,20.9760500000
2876,02,"Os. Kabaty",52.1288990000,21.0685670000
7800,03,"Grenadierów",52.2437930000,21.0790300000
6573,01,"Słomczyn",52.0525730000,21.1547150000
2316,04,"Tawułkowa",52.1733240000,21.1772380000
2249,02,"Kolarska",52.2024100000,21.1710480000
953,01,"Solec",52.2321830000,21.0370180000
5940,01,"Klub Lira",52.2965430000,21.0355780000
7600,06,"Metro Świętokrzyska",52.2348450000,21.0087670000
1585,01,"Wieruchowska",52.2488890000,20.8350620000
3224,01,"Lipków",52.2733080000,20.8081600000
5672,04,"Jesiennych Liści",52.3106270000,21.0605630000
6696,01,"Sadowa",52.3594150000,20.8292130000
5176,02,"Aleja Róż",52.4140500000,20.9168050000
2207,01,"Chodakowska",52.2519870000,21.0649240000
2574,03,"Błota",52.1498610000,21.1888090000
3424,01,"PKP Koło",52.2473520000,20.9582650000
3255,01,"Wierzbin",52.2557210000,20.7493200000
2807,02,"Metro Ratusz Arsenał",52.2456540000,21.0001110000
496,02,"Podbipięty",52.1786800000,21.0266530000
1145,02,"Płocka-Szpital",52.2373880000,20.9640720000
2408,02,"Przelotowa",52.1566960000,20.9503880000
5231,02,"Kaczeńców",52.0798790000,20.8940750000
2183,03,"Terespolska",52.2503720000,21.0693270000
1520,01,"Księżnej Anny",52.2609090000,21.0759390000
3698,02,"Piaskowa",52.4122200000,20.9461410000
9740,51,"Zesłańców Polskich",52.2648930000,21.1486840000
5353,03,"Echa Leśne",52.3174620000,21.0368950000
3441,02,"Główna",52.4718410000,21.0699900000
4489,04,"Sielankowa",52.3956430000,20.9379230000
5007,01,"Orla",52.2913730000,21.1168530000
7656,03,"Zajezdnia Wola",52.2352680000,20.9743240000
2773,02,"PKP Nieporęt",52.4297200000,21.0304660000
3894,01,"Czerwińska",52.2891960000,21.0663070000
398,01,"Joliot-Curie",52.1925340000,21.0110380000
1242,04,"Blizne Łaszczyńskiego",52.2411760000,20.8850970000
9508,02,"Turkawki",52.0580660000,21.0641820000
2191,03,"PKP Olszynka Grochowska",52.2483310000,21.1071150000
3734,01,"Popławska",52.1343440000,21.4508420000
4096,02,"PKP Michałów-Reginów",52.4200650000,20.9630120000
5496,02,"Krymska",52.3110150000,21.2445020000
4343,02,"Ciszyca",52.1085840000,21.1836350000
2810,01,"Płocka-Szpital",52.2369810000,20.9663300000
156,02,"Rakowiec",52.1989910000,20.9843410000
2650,01,"Podgórna",52.2205000000,21.2940670000
2641,01,"Wiśniowa Góra",52.2097520000,21.2048900000
6611,01,"Sikorskiego",52.3262820000,21.1962250000
5249,01,"Szkolna",52.3608710000,21.1665930000
3597,01,"Bogusławskiego",52.2809380000,20.9249480000
1281,01,"Romaszewskiego",52.2695510000,20.9530510000
5198,02,"Łbiska",52.0240610000,21.0028410000
7807,03,"Rakowiecka-Sanktuarium",52.2051550000,20.9994000000
6136,04,"Żerań Wschodni",52.3106380000,21.0143700000
6941,03,"Metro Kondratowicza",52.2922020000,21.0497490000
8999,01,"Conrada-Szkoła",52.2712110000,20.9290850000
687,02,"Os. Wyżyny",52.1379750000,21.0490900000
1848,01,"Staniewicka",52.2727030000,21.0325760000
2970,02,"UKSW",52.2903080000,20.9497820000
1452,01,"Most Grota-Roweckiego",52.2826300000,20.9877320000
6300,01,"Urzut",52.0705900000,20.7589680000
821,04,"Centrum",52.2314260000,21.0109960000
8818,02,"P+R Al. Krakowska",52.1760560000,20.9438780000
3503,07,"PKP Falenica",52.1601900000,21.2110360000
1788,01,"Wybrzeże Helskie",52.2622540000,21.0141470000
6243,81,"PKP Legionowo Przystanek",52.4107371783,20.9153920465
3689,01,"Os. Jagiellońska",52.4018300000,20.9275500000
3454,04,"Meissnera",52.2217340000,21.0922920000
1809,01,"Płytowa",52.3165580000,21.0117640000
1945,02,"Drogowa",52.3277860000,20.9680330000
3005,02,"Rezedowa",52.2384630000,21.1385800000
955,02,"Topiel",52.2376270000,21.0267710000
1434,01,"Rokokowa",52.2863010000,20.9093530000
6417,06,"Metro Młynów",52.2377720000,20.9601520000
9804,07,"Rakowiecka-Sanktuarium",52.2060800000,21.0002300000
9533,52,"Koliski",52.4130560000,21.1849170000
1616,03,"Bródno-Podgrodzie",52.3004390000,21.0417270000
1588,02,"Mościckiego",52.2689800000,20.8150700000
5593,02,"Julianów",52.1009500000,21.0527880000
6308,01,"Instalatorów",52.2003510000,20.9490280000
2149,03,"Saska",52.2285540000,21.0630260000
1488,01,"Ząbkowska",52.2513250000,21.0384570000
3612,01,"Gen. Kutrzeby",52.2506900000,20.8260940000
4392,01,"Od Lasu",52.0788990000,21.1330650000
1706,01,"Stefanika",52.3268870000,20.9405720000
3651,04,"PKP Okęcie",52.1675520000,20.9836320000
5104,02,"Brzózek",52.0268530000,21.0891220000
9687,01,"Drwęcka",52.2544490000,21.0763490000
3482,01,"Dzierzgońska",52.3398380000,20.9401660000
3836,01,"Kostowiec",52.0617350000,20.7448710000
2107,01,"Rembertów-Ratusz",52.2588930000,21.1610240000
5114,01,"Akacjowa",51.9820380000,21.1148400000
2294,02,"Borowiecka",52.1802050000,21.1721320000
8810,09,"Pl. Narutowicza",52.2188010000,20.9846640000
1637,01,"Brzeziny",52.3348180000,21.0333650000
9746,53,"Muzeum Powstania Warszawskiego",52.2324100000,20.9823320000
360,02,"Urząd Miasta",52.0743010000,21.0283450000
845,01,"Inflancka",52.2536520000,20.9942850000
5853,02,"Łomna-Las",52.3771840000,20.7979780000
727,02,"Domaniewska",52.1840430000,21.0024580000
5358,02,"Pośrednia",52.3104390000,21.0396580000
7923,03,"Marymont-Potok",52.2751350000,20.9804050000
4723,02,"Al. Wojska Polskiego",52.4423440000,21.0536320000
4579,01,"Wiechy",52.1285030000,21.1381100000
3631,04,"PKP Ursus",52.1952800000,20.8865700000
120,02,"Instytut Lotnictwa",52.1801730000,20.9479720000
3492,02,"Os. Orlik",52.2281870000,21.0886950000
2965,01,"Dostawcza",52.2163160000,20.8918950000
2927,03,"Metro Natolin",52.1403650000,21.0573390000
5442,01,"Lazurowa",52.2162930000,20.8973620000
5446,01,"Sternicza",52.2201770000,20.8969760000
3460,01,"Rumiankowa",52.2167280000,21.2421180000
25,02,"Orzechowa",52.1921470000,20.9490070000
6064,02,"Pozytywki",52.1104500000,21.0111190000
315,02,"Ksawerów",52.1872270000,21.0182450000
2475,04,"Keniga",52.1946250000,20.8691460000
9058,09,"Rondo „Radosława”",52.2554250000,20.9821400000
3644,02,"Malinowa",52.1938080000,20.8837550000
2385,02,"Wspólna",52.2461000000,21.1836060000
5967,01,"Szymańskiego",52.3145670000,21.1743670000
8333,04,"Sielce",52.2071240000,21.0474360000
1638,02,"Łokietka",52.2790760000,21.0600680000
7605,06,"Muranów",52.2490230000,20.9989410000
5683,02,"Sue Ryder",52.0687230000,21.1161570000
2814,03,"Obrońców Tobruku",52.2659990000,20.9455750000
2088,02,"Meblowa",52.2697060000,21.1197020000
3337,02,"Os. Jagiellońska",52.4016450000,20.9274000000
8536,80,"Mława",52.4079485364,20.9120112381
2824,25,"Dw. Centralny",52.2293650000,21.0037780000
1383,02,"Cm. Włoski",52.2980570000,20.9424790000
8512,80,"Zalesie Górne",52.0265290000,21.0417790000
4969,04,"Zasadowa",52.1841450000,21.1695240000
7811,14,"Pl. Wilsona",52.2698990000,20.9855160000
2200,04,"Dwernickiego",52.2502510000,21.0852530000
944,02,"Sanguszki",52.2551010000,21.0119430000
4727,01,"Poczty Gdańskiej",52.1991990000,20.9017040000
7887,04,"Karolkowa",52.2293960000,20.9788120000
9735,08,"Rondo Granzowa",52.2598690000,21.1266430000
2132,01,"Listonoszy",52.2745940000,21.1622780000
6105,02,"Wólka Pęcherska",52.0309010000,20.9812740000
8061,04,"Świderska",52.3108690000,20.9598410000
6684,01,"Południowa",52.3734020000,20.7153820000
3591,04,"Pl. Teatralny",52.2446590000,21.0111320000
8679,06,"Pl. Konstytucji",52.2228550000,21.0161100000
8751,09,"P+R Al. Krakowska",52.1754050000,20.9440660000
1146,03,"Metro Młynów",52.2372370000,20.9556070000
4650,03,"Dworcowa",52.4401760000,20.7770280000
7507,04,"Hynka",52.1905830000,20.9585090000
8623,01,"Małowiejska",52.1612350000,21.1900440000
3091,01,"Hetmańska",52.2449870000,21.1109170000
4892,01,"Królewska",52.3966500000,21.0446390000
5128,02,"Mrągowska",52.1720890000,21.1662430000
2255,01,"Zbójnogórska",52.1917320000,21.1816430000
6341,02,"Metro Szwedzka",52.2633410000,21.0436880000
7869,06,"Dw. Gdański",52.2584550000,20.9959270000
48,02,"Pl. Tysiąclecia",52.1932840000,20.8923430000
482,04,"Dolna",52.2016910000,21.0341490000
5047,01,"Gołębia",52.0630690000,21.0511330000
3093,01,"Podolska",52.2443480000,21.1153030000
659,01,"Zawady",52.1594580000,21.1187410000
3758,02,"Nowe Słupno",52.3791440000,21.1518140000
2041,02,"PKP Miedzeszyn",52.1712290000,21.2012650000
2282,02,"Kryniczna",52.2289980000,21.0519320000
3621,02,"Fort Wawrzyszew",52.2747200000,20.9045000000
535,01,"Sadyba",52.1817620000,21.0689990000
7108,04,"Wilanówka",52.1255440000,21.1421840000
3137,04,"1. Praskiego Pułku",52.2242230000,21.2229460000
3173,02,"Kępa Okrzewska",52.1312770000,21.1486690000
7202,01,"Olszowa",52.3672840000,21.3043460000
2389,00,"R13(S)",52.2635900000,21.0478680000
2762,01,"Hipolitowska",52.2158730000,21.3154400000
5904,01,"Samsonowska",52.1495030000,21.0153230000
2782,01,"Urząd Gminy",52.4217950000,21.0352330000
2586,01,"Okrzei",52.1065400000,21.2441020000
3486,03,"PKP Rembertów",52.2562170000,21.1569830000
2739,01,"Graniczna",52.0259600000,20.8765500000
3252,02,"Wojcieszyn",52.2564000000,20.7712790000
9583,01,"Św. Bonifacego",52.1811320000,21.0562680000
3512,01,"Metro Ursynów",52.1616080000,21.0274410000
3243,01,"Koczargi Stare",52.2637040000,20.7956540000
2699,01,"Langiewicza",52.2954750000,20.8013800000
595,04,"Os. Domaniewska",52.1835520000,21.0191840000
7211,01,"Fajna",52.3471750000,21.0468480000
5876,02,"Wypoczynkowa",52.4182720000,20.8893470000
68,01,"Wałowicka",52.2087440000,20.9139250000
8900,01,"Wałbrzyska-Cmentarz",52.1734720000,21.0358630000
3938,01,"Międzyborska",52.2460610000,21.0733400000
1,01,"Włochy-Ratusz",52.1936030000,20.9614250000
3831,01,"Starowiejska",52.0834780000,20.7925470000
8752,07,"P+R Al. Krakowska",52.1754760000,20.9441390000
3794,01,"Załubice-Szkoła",52.4810850000,21.1238750000
2886,06,"Lubelska",52.2479900000,21.0522310000
2229,03,"Gocław",52.2219500000,21.1020500000
3311,01,"Brzozowa",52.0320880000,20.8703950000
1995,03,"Trakt Lubelski",52.2279100000,21.1400600000
2973,02,"Głębocka",52.3064810000,21.0607850000
7213,01,"Zamienie",52.1128430000,20.9790900000
4611,02,"Działkowa",51.9443077000,20.9897180600
4160,02,"Spacerowa",52.4404870000,20.8380690000
4002,01,"Samorządowa",52.1736610000,21.2293390000
3333,03,"Kolejowa",52.3040750000,21.1600550000
8687,02,"Juranda ze Spychowa-Szkoła",52.3176020000,21.0334180000
1273,01,"Estrady",52.2991920000,20.8812480000
6292,02,"Sportowa",52.3235260000,21.1093320000
4490,03,"Sowińskiego",52.3929900000,20.9341400000
2433,02,"Parlamentarna",52.1282140000,20.9798270000
4373,02,"Łyczyńska",52.0642440000,21.1498850000
8673,08,"Pl. Konstytucji",52.2228490000,21.0163790000
1251,04,"Metro Słodowiec",52.2756810000,20.9608310000
2197,02,"Garwolińska",52.2494200000,21.0929900000
1786,02,"Park Praski",52.2528060000,21.0302670000
7906,08,"Nowe Bemowo",52.2602720000,20.9249470000
2238,04,"Bora-Komorowskiego",52.2255800000,21.0929600000
4254,02,"Postępu",52.0309420000,20.8375780000
5624,03,"Duczki-Szkoła",52.3617290000,21.2900920000
4236,02,"Szkoła",52.0919420000,21.0017080000
4491,01,"Królewska",52.3793360000,20.9181060000
9319,01,"Wilczynek",52.0138910000,21.1292580000
1827,02,"Smugowa",52.3252930000,20.9927780000
3586,05,"Park Kaskada",52.2732980000,20.9673800000
7666,03,"Klemensiewicza",52.2389650000,20.9054750000
476,01,"Karczunkowska",52.1106880000,21.0182830000
2325,01,"Kombajnistów",52.2029790000,21.1342580000
5697,02,"Sosnowa",52.0556350000,20.8874890000
9791,02,"Królowej Marysieńki",52.3707460000,20.8279140000
844,02,"Dzika",52.2527570000,20.9902600000
8464,80,"Warszawa Praga",52.2774900000,21.0223830000
4944,01,"Dębówka",52.0499240000,21.1908600000
6603,12,"PKP Międzylesie",52.2031060000,21.1665360000
1129,06,"Ciepłownia Wola",52.2193790000,20.9160100000
6327,01,"Lewinów",52.2865960000,21.0865480000
3895,01,"Bokserska",52.1693940000,20.9964220000
5959,01,"Sowińskiego",52.3158900000,21.1461490000
3069,03,"Chodecka",52.2875720000,21.0404500000
8236,02,"Sękocin-Las",52.1031730000,20.8860730000
8022,03,"Metro Marymont",52.2718310000,20.9732040000
4918,05,"PKP Mokry Ług",52.2767820000,21.1691510000
1358,02,"Cytadela",52.2654060000,21.0038180000
3637,21,"PKP Ursus",52.1953710000,20.8827010000
3406,03,"Armii Krajowej",52.2511330000,21.2236920000
4930,02,"Jesionowa",52.1810220000,20.8849840000
8836,01,"Al. 3 Maja",52.2347770000,21.0334770000
3962,01,"Klimatyczna",52.1884660000,21.1725760000
4274,02,"Tolak",52.1158570000,20.9306770000
3534,03,"Madalińskiego",52.2031410000,21.0095760000
2921,02,"Os. Jantar",52.2230030000,21.0853250000
446,01,"Malczewskiego",52.1939650000,21.0240540000
3748,02,"Stefanówka",52.1838780000,21.3051740000
3022,04,"Balkonowa",52.2855780000,21.0406890000
8873,04,"CH  Targówek",52.3020420000,21.0590890000
7809,03,"Park Kaskada",52.2733760000,20.9674970000
4738,01,"Chełmońskiego",52.1912240000,20.9006930000
3037,03,"Ursus-Ratusz",52.2003590000,20.8930060000
2380,02,"Żonkilowa",52.2030880000,21.1595940000
4642,02,"Wojewódzka",52.0140840000,20.9015860000
1644,02,"Buchnik",52.3640100000,20.9343570000
5499,01,"Cięciwa",52.3172460000,21.2913910000
3731,02,"Dziechciniec",52.1484150000,21.3623770000
1241,02,"Blizne Łaszczyńskiego",52.2405390000,20.8839560000
1470,02,"Młocińska",52.3212880000,20.8842960000
1769,02,"Wyszogrodzka",52.2883480000,21.0361690000
486,02,"Tor Stegny",52.1912550000,21.0460270000
7607,08,"Muranowska",52.2532350000,20.9979870000
6690,01,"Firmowa",52.3791460000,20.7676280000
860,02,"Nowy Świat",52.2368630000,21.0167790000
783,05,"Dw. Centralny",52.2270040000,21.0020830000
6355,04,"Zdziarska",52.3412470000,21.0605680000
5936,03,"Sasina",52.3462760000,21.2289030000
2205,01,"Przeworska",52.2527110000,21.0828490000
6201,02,"Królika",52.0675400000,21.0525960000
6289,01,"Sokola",52.3202020000,21.1196200000
4287,02,"Orężna",52.0695460000,20.9914290000
3887,01,"Os. Derby",52.3157820000,21.0599360000
3228,02,"Thomme",52.2610730000,20.8316440000
2705,01,"Pocztowa",52.2924330000,20.8510490000
1930,09,"Żerań FSO",52.2911400000,21.0009050000
5133,01,"Oborska",52.0795730000,21.0996980000
4232,02,"Krasickiego",52.0903390000,20.9854260000
1948,04,"Al. Zieleniecka",52.2473870000,21.0484540000
5850,02,"Wędkarska",52.3553190000,20.8427310000
1970,05,"Międzyborska",52.2465100000,21.0746650000
1641,01,"Os. Lewandów I",52.3112100000,21.0635200000
7425,01,"P+R Radzymin",52.4035150000,21.1959390000
7675,04,"Synów Pułku",52.2258310000,20.9162530000
7056,14,"Metro Bródno",52.2934500000,21.0280930000
2934,01,"Waflowa",52.1182180000,21.1034220000
1745,02,"Danusi",52.3153970000,21.0298830000
4899,01,"Mozaikowa",52.1842490000,21.1761510000
4074,02,"Browarna",52.2431110000,21.0205590000
2821,01,"Berestecka",52.2125620000,20.9534800000
2368,01,"Zwoleńska",52.1962480000,21.1362540000
3809,02,"Wolica",52.4791570000,21.0954770000
4512,01,"Przyjaciół",52.4158410000,21.0553460000
6016,02,"Wrzosowa",52.3710710000,21.1608590000
3660,02,"Boryszewska",52.1766980000,21.2922320000
2233,01,"Brazylijska",52.2309190000,21.0636450000
2834,01,"Os. Konstancja",52.1090830000,21.1128670000
5174,02,"Cynkowa",52.4149830000,20.9212620000
6033,01,"Gizów",52.2249470000,20.9458540000
2406,02,"Schronisko Dla Zwierząt",52.1559210000,20.9628080000
839,02,"Muranowska",52.2537620000,20.9971520000
1048,01,"Archimedesa",52.2556180000,20.8979390000
2442,02,"Objazdowa",52.1450700000,20.9559330000
1650,02,"3 Maja",52.3957700000,20.9286130000
2951,02,"Sosnkowskiego",52.1896650000,20.8867700000
3730,01,"Wierzbowa",52.1433940000,21.3855060000
2767,02,"Wierzbowa",52.2179070000,21.3402370000
2341,01,"Kanał Nowe Ujście",52.2040950000,21.1137270000
5642,02,"Pułaskiego",52.0845660000,21.0840090000
8515,80,"Ostrołęka",52.4003307647,21.2855905709
6460,02,"Łoś",51.9800710000,20.9508740000
8765,04,"Banacha-Szpital",52.2105040000,20.9868970000
1315,02,"Magiera",52.2714380000,20.9506910000
5548,02,"Poziomkowa",52.3600520000,21.1548850000
580,05,"Nowoursynowska",52.1713120000,21.0403350000
2735,01,"Gołębia",52.0856120000,20.8253220000
1077,01,"Armatnia",52.2205600000,20.9595500000
8928,02,"CH  Marki",52.3050280000,21.0852440000
6337,02,"Sieczna",52.3148010000,21.0670360000
1435,01,"Wólczyńska-Bocznica",52.2869360000,20.9036640000
3915,01,"Zielona",52.2387650000,21.1917210000
7458,02,"Wawrzyna",52.3956680000,21.1660350000
3788,02,"Wczasowa",52.4529000000,21.0700230000
5506,01,"Sasina",52.3454100000,21.2288620000
3880,01,"Kamykowa",52.3177200000,21.0418100000
2311,01,"Powojowa",52.1841720000,21.1830600000
2502,01,"Chylice",52.0784890000,21.0639150000
3852,01,"Bąkówka",52.0408550000,20.9559350000
943,01,"Most Gdański",52.2598590000,21.0072230000
1020,02,"Monte Cassino",52.2360950000,20.9479690000
1562,07,"PKP Żerań",52.3139250000,21.0029030000
4169,02,"Wiśniowa",52.4528070000,20.9397330000
6885,01,"Bergamotki",52.1790200000,21.0443540000
6142,02,"Borki",52.2741320000,20.7395430000
1227,02,"Smocza",52.2457570000,20.9856880000
5112,01,"Ogrodowa",51.9906550000,21.1092920000
5962,02,"Mazurska",52.3143130000,21.1403390000
3293,01,"Dziechciniec-Kolonia",52.1500830000,21.3449350000
2877,03,"Os. Kabaty",52.1292690000,21.0684000000
4004,01,"Zagórzańska",52.1753220000,21.2313350000
5881,01,"Brzozowa",52.4305980000,20.8772020000
2841,01,"Meissnera",52.2215820000,21.0905970000
8498,80,"Michalin",52.1481800000,21.2246210000
3403,22,"Wiatraczna",52.2449830000,21.0871440000
5388,02,"Rozwadowskiego",52.3213200000,21.1896760000
724,02,"Woronicza",52.1895350000,21.0022580000
4619,03,"Parkowa",52.0000860000,21.0389250000
6329,02,"Akademijna",52.3772940000,20.9322890000
1042,02,"Batalionów Chłopskich",52.2322600000,20.8969410000
4408,01,"Wyszyńskiego",51.9940150000,21.2096700000
5957,02,"Os. Poligon",52.3028420000,21.1602770000
5739,02,"Morawicza",52.4195310000,20.7297190000
2167,02,"Łukowska",52.2380060000,21.0995110000
8754,02,"Pl. Narutowicza",52.2191830000,20.9833800000
6229,08,"PKP Rembertów",52.2573310000,21.1603910000
295,01,"Bobrowiecka",52.2003230000,21.0461600000
470,01,"Żołny",52.1384470000,21.0174870000
2776,01,"Al. Wojska Polskiego",52.4404830000,21.0497710000
5342,02,"Bytnara",52.1930410000,21.0020510000
617,01,"Strzeleckiego",52.1561200000,21.0450000000
4672,04,"Sowińskiego",52.2256100000,20.9374490000
6630,02,"Tomice",52.0095270000,21.1548750000
4050,02,"Korbońskiego",52.1313350000,21.0988200000
7584,04,"Domaniewska",52.1829370000,21.0022120000
7687,01,"Koło",52.2466790000,20.9383740000
4315,04,"PKP Legionowo",52.4004630000,20.9414550000
4982,02,"Stoczniowców",52.2212090000,21.1066330000
1784,01,"Myszkowska",52.2699190000,21.0565780000
4789,02,"Pogroszew Kolonia",52.2338360000,20.7193080000
4634,02,"Uwieliny-Szkoła",51.9755250000,21.0412280000
1901,05,"Dw. Wschodni (Kijowska)",52.2525380000,21.0510280000
5374,01,"Dębowa",52.3619330000,20.9460500000
4378,01,"Kawęczynek II",52.0474280000,21.1490760000
9056,05,"Rondo Waszyngtona",52.2378510000,21.0500350000
6637,01,"Pijarska-Basen",51.9889080000,21.1995330000
2142,02,"Kanał Gocławski",52.2329400000,21.0755270000
3031,02,"Drobiarska",52.2329020000,21.2516520000
7127,01,"Starorzecze",52.4923830000,21.1317200000
2979,04,"Mehoffera",52.3229770000,20.9449000000
1761,04,"Bródno-Podgrodzie",52.3003450000,21.0417410000
6966,02,"Bobrowiec",52.0652110000,20.9626550000
7911,03,"AWF",52.2833280000,20.9564540000
3220,02,"Macierzanki",52.1154410000,20.8088370000
5356,02,"Ojca Aniceta",52.3076700000,21.0360360000
3131,01,"Sosnowa",52.2472620000,21.1842960000
1693,01,"3 Maja",52.3959770000,20.9279560000
8612,01,"Czersk I",51.9620680000,21.2242390000
3754,01,"Ceglana",52.3661900000,21.1403100000
5722,01,"Golfowa",52.3976910000,20.8427290000
4638,02,"Graniczna",51.9943860000,21.0513860000
6606,03,"Majdan",52.2063000000,21.2659900000
7044,01,"Żyzna",52.2306480000,20.7803840000
7848,04,"Banacha",52.2097720000,20.9818830000
5905,02,"Samsonowska",52.1504080000,21.0153260000
4346,01,"Starego Dębu",52.0611330000,21.0987420000
7114,02,"PWiK",52.3292690000,21.2603370000
1835,02,"Daniszewska",52.3066040000,21.0070960000
4870,01,"Pancera",52.3183140000,20.9465880000
7652,08,"Okopowa",52.2376770000,20.9793030000
1290,01,"Metro Stare Bielany",52.2807350000,20.9511800000
2789,05,"Pl. Wilsona",52.2692770000,20.9881590000
4364,01,"Cieciszew-OSP",52.0607470000,21.1746400000
8232,01,"Ogrodowa",52.3478350000,20.8653860000
6349,01,"Berensona-Kanał",52.3251530000,21.0504470000
203,01,"Opaczewska",52.2099050000,20.9705310000
2178,02,"Szaserów-Szpital",52.2500820000,21.0891550000
90,01,"Novotel",52.1907110000,20.9809900000
1384,01,"Prozy",52.3002530000,20.9397970000
1334,02,"Janów",52.2641000000,20.8563790000
8171,01,"Janów",52.2653260000,20.8575610000
4472,02,"Ekologiczna",52.3995460000,21.1345080000
4842,01,"Chlubna",52.3550190000,20.9521220000
6655,03,"Czosnów",52.3896340000,20.7347120000
8538,80,"Błonie",52.1997030958,20.6963303587
3244,02,"Koczargi Stare",52.2647130000,20.7956010000
7810,04,"Nowe Bemowo",52.2593400000,20.9226200000
3944,01,"Sęczkowa",52.2124470000,21.1079310000
7689,06,"Orlich Gniazd",52.2486360000,20.9211940000
8543,80,"Sierpc",52.2029400981,20.7045765915
8484,80,"Warszawa Centralna",52.2287650000,21.0028690000
9366,59,"Szczęśliwice",52.2079630000,20.9653140000
959,04,"Książęca",52.2301730000,21.0295530000
3111,01,"Kąty Grodziskie",52.3248610000,21.0641550000
3309,02,"Łanowa",52.0170890000,20.8853210000
3151,02,"Wólka Kosowska",52.0572510000,20.8412500000
534,03,"Goraszewska",52.1875670000,21.0632030000
2444,01,"Rybie",52.1496200000,20.9364120000
635,02,"Ursynów Płd.",52.1529800000,21.0375900000
7755,04,"Pożarowa",52.2780870000,21.0277990000
8532,80,"Otwock Śródborów",52.1012230000,21.2943660000
4106,01,"Szpital Onkologiczny",52.4398810000,20.9619830000
1098,03,"Smocza",52.2464280000,20.9859370000
4994,02,"Imbirowa",51.9952410000,20.9302020000
3317,01,"Topolowa",52.2602940000,20.6973210000
2942,03,"Piastów Śląskich",52.2637270000,20.9267980000
5951,01,"Młodzieżowa",52.3152430000,21.1522800000
677,01,"Dom Artystów",52.0847410000,21.0787390000
3426,04,"Koło",52.2466150000,20.9397480000
983,04,"Anielewicza",52.2476750000,20.9895770000
5969,01,"Turowska",52.3129070000,21.1672560000
3469,02,"Os. Przylesie",52.3752080000,20.9345170000
7083,01,"Przemysłowa",52.3165120000,21.1626320000
72,02,"Bełzy",52.1951420000,20.8729350000
1661,01,"Szwoleżerów",52.2841340000,21.1100580000
3782,01,"Gwiaździsta",52.2866740000,20.9774050000
503,01,"Wilanów",52.1650080000,21.0841240000
4510,02,"Nowolipie",52.4229080000,21.0507270000
6430,01,"Portowa",52.3022100000,20.9818220000
2736,01,"Kajetany",52.0924310000,20.8142490000
712,01,"Madalińskiego",52.2028100000,21.0101900000
390,02,"Śniadeckich",52.0848810000,21.0754430000
1033,05,"Norblin",52.2314990000,20.9926760000
3709,02,"Os. Bukowiec",52.3949620000,20.9556580000
8835,06,"Pl. Trzech Krzyży",52.2283350000,21.0235060000
908,01,"Zachęta",52.2393460000,21.0105900000
2948,06,"PKP Wola (Kasprzaka)",52.2286740000,20.9572860000
2428,02,"Kościół",52.1506170000,20.9165890000
7987,05,"Gocławek",52.2381240000,21.1189130000
2609,02,"Tomaszowska",52.1817980000,21.1916950000
1953,07,"Międzyborska",52.2449470000,21.0754640000
6063,01,"Pozytywki",52.1104920000,21.0125390000
2360,01,"Cyklamenów",52.1786910000,21.1395170000
6280,01,"Węzeł Nadarzyn",52.0935700000,20.8088290000
3360,01,"Pułaskiego",52.2852890000,21.1343920000
8012,04,"Reduta Wolska",52.2263000000,20.9410640000
8097,05,"Nowodwory",52.3326920000,20.9417110000
3113,01,"Jesiennych Liści",52.3094840000,21.0617990000
4377,01,"Jabłoniowa",52.0571600000,21.1597950000
8758,03,"Pl. Zawiszy",52.2250060000,20.9906440000
8334,02,"Iwicka",52.2067800000,21.0428180000
3007,02,"Kraśnicka",52.2743130000,21.0664390000
5947,01,"Marecka",52.3116640000,21.1357350000
1535,02,"Gorzykowska",52.2695270000,21.0612910000
3501,02,"Park Kaskada",52.2734440000,20.9669380000
3480,02,"Barei",52.3366260000,20.9375940000
1325,01,"Czarnieckiego",52.2704860000,20.9921150000
1345,02,"Energetyczna",52.2929740000,20.8771290000
7216,01,"Błędna",52.1148990000,20.9724910000
3351,06,"Al. Wojska Polskiego",52.1596100000,20.7985990000
1058,02,"Długosza",52.2405610000,20.9707340000
6721,02,"Pustelnicka",52.3141730000,21.1289660000
4156,01,"Kałuszyn",52.4531640000,20.8718630000
1478,02,"Kochanowskiego",52.2685670000,20.9456980000
2785,02,"Aleksandrów",52.3980970000,21.0356180000
5985,02,"Ząbkowska",52.3167290000,21.1167630000
1407,01,"Magiera",52.2712300000,20.9504100000
7514,04,"Wawelska",52.2166110000,20.9813620000
2774,01,"Port Nieporęt",52.4340330000,21.0414690000
2047,02,"PKP Radość",52.1835650000,21.1889560000
7651,03,"Wola-Ratusz",52.2395790000,20.9866200000
4728,01,"Batalionu Włochy",52.1977420000,20.9043520000
4246,01,"Runów Osada II",52.0103370000,20.9448180000
8520,80,"Warszawa Zacisze-Wilno",52.2779910000,21.0803320000
868,01,"Park Traugutta",52.2587140000,21.0033950000
7806,04,"Rakowiecka-Sanktuarium",52.2056170000,20.9993360000
5445,04,"Lazurowa",52.2171050000,20.8964130000
4260,01,"Rolna",52.0803220000,20.8838930000
4409,01,"Rynek",51.9816210000,21.2174280000
7860,99,"R3(M)",52.1885000000,21.0002900000
1154,01,"Metro Bemowo",52.2391520000,20.9149810000
7747,02,"Batalionu Platerówek",52.2738510000,21.0144010000
7046,02,"Metro Zacisze",52.2850990000,21.0613300000
1109,02,"Zajezdnia Wola",52.2355110000,20.9744120000
4168,01,"Wiśniowa",52.4526610000,20.9419000000
1012,04,"Ciepłownia Wola",52.2209910000,20.9195110000
210,04,"Opaczewska",52.2105350000,20.9694880000
2862,02,"Łucznicza",52.1815540000,21.0889540000
5636,02,"Domaniewska Office Park",52.1832430000,20.9922870000
5259,01,"Kościół",52.3392910000,21.1938670000
6391,01,"Kierbedzia",52.1977010000,21.0468850000
2618,01,"Groszówka",52.2473200000,21.2072780000
271,03,"Gołkowska",52.1929700000,21.0576270000
6005,01,"Rataja",52.2308090000,20.7385990000
4342,02,"Opacz",52.1040640000,21.1671520000
8447,80,"Piaseczno",52.0664950000,21.0173150000
742,02,"Zajezdnia Woronicza",52.1889380000,20.9964610000
4347,02,"Starego Dębu",52.0602420000,21.0987090000
9781,01,"Mokotów-Ratusz",52.2086110000,21.0137820000
6652,02,"Kamionek",52.2538670000,21.0732150000
3546,09,"Al. Zieleniecka",52.2476860000,21.0485330000
685,01,"Polna",52.0947470000,21.1173000000
6559,02,"Załuskiego",52.3412390000,21.2205140000
2608,01,"Lawinowa",52.1733020000,21.1999950000
9182,04,"Czarnomorska",52.1858700000,21.0515360000
4641,01,"Nadziei",52.0918550000,21.0508300000
9097,02,"Idzikowskiego",52.1927040000,21.0443350000
1198,01,"Czumy",52.2362100000,20.9139670000
2370,01,"Zerzeń",52.1989640000,21.1347660000
4023,01,"Terminal Cargo",52.1580390000,20.9865090000
6281,03,"Słoneczna",52.3296860000,21.1093830000
7635,03,"Rondo ONZ",52.2321580000,20.9989200000
514,02,"Rosochata",52.1282820000,21.1038620000
2489,02,"Kino Baśń",52.1859980000,20.8430610000
3085,02,"Pl. Małachowskiego",52.2391520000,21.0126280000
7968,06,"Rondo Starzyńskiego",52.2631700000,21.0210480000
5913,02,"Łukaszczyka",52.1467850000,21.0285570000
3886,02,"Os. Derby",52.3150930000,21.0603840000
2487,01,"Toruńska",52.1926250000,20.8391750000
8937,01,"Cmentarz 1920 r.",52.3994650000,21.1681780000
5510,01,"Lipowa",52.3594060000,21.2228070000
5514,01,"Zagościniec-Szkoła",52.3729220000,21.2663930000
3747,01,"Boryszew",52.1867500000,21.3127040000
2400,01,"Ogrody Działkowe Na Skraju",52.1563020000,20.9596040000
2799,02,"Nowodwory",52.3332200000,20.9416820000
372,02,"Mandarynki",52.1458230000,21.0631230000
4368,02,"Słomczyn-Kościół",52.0597470000,21.1602010000
2083,02,"Gwarków",52.2658120000,21.1216860000
6440,02,"Sitowie",52.1680560000,21.1576060000
4013,02,"Pl. Przymierza",52.2322190000,21.0554620000
8694,01,"Ostródzka-Szkoła",52.3274110000,21.0480330000
375,01,"Małcużyńskiego",52.1390570000,21.0551690000
4978,02,"Łasaka",52.2174690000,21.1090300000
6346,01,"Kasztanowa",52.3065120000,20.9745510000
907,02,"Pl. Teatralny",52.2440910000,21.0088870000
497,02,"Dominikańska",52.1773590000,21.0336080000
4276,02,"Janczewice",52.1103180000,20.9315310000
671,01,"Urząd Miasta",52.0731210000,21.0271670000
222,02,"Królikarnia",52.1907600000,21.0247500000
6860,02,"Biały Ług",51.9485950000,21.0542520000
3605,01,"Głowackiego",52.2738050000,20.9159120000
2880,03,"Metro Kabaty",52.1311740000,21.0674090000
4724,01,"Bielany-Ratusz",52.2768000000,20.9487640000
7801,04,"Grenadierów",52.2435360000,21.0784920000
1344,02,"Rudzka",52.2798150000,20.9736480000
858,01,"Muzeum Narodowe",52.2321780000,21.0234450000
6227,01,"Kwatery Głównej",52.2397260000,21.1146710000
3383,14,"Żerań FSO",52.2914850000,21.0010300000
8919,02,"Borzęcin Duży-Wieś",52.2557110000,20.7183900000
2145,01,"Zamieniecka",52.2347850000,21.0989270000
1453,01,"Os. Potok",52.2787600000,20.9772610000
1301,01,"Dankowicka",52.3090150000,20.9111060000
2347,02,"Rzymska",52.2223150000,21.0638440000
9327,03,"Wiśniowa Góra",52.2100860000,21.2056160000
6425,01,"Kraśnicka",52.2743720000,21.0667460000
5963,03,"Mazurska",52.3143200000,21.1347870000
8019,04,"P+R Połczyńska",52.2220270000,20.9230480000
3509,01,"Cicha",52.1414480000,21.2308570000
3206,01,"Krótka",52.0807700000,20.9755620000
3833,01,"Stara Wieś",52.0820800000,20.7674020000
5360,02,"Porzeczkowa",52.3148120000,21.0379720000
3821,01,"Kisielewskiego",52.3975920000,20.8952570000
9004,01,"Grupy AK „Północ”",52.2079150000,21.0598130000
5621,02,"Stare Lipiny",52.3358130000,21.2706190000
7636,04,"Rondo ONZ",52.2340170000,20.9979650000
4986,04,"Gocław",52.2228030000,21.1023180000
1001,01,"GUS",52.2162880000,21.0049850000
87,02,"PKP WKD Al. Jerozolimskie",52.2057980000,20.9427500000
1662,02,"Warszawska",52.2866450000,21.1069360000
4929,01,"PKP Ursus-Niedźwiadek",52.1920500000,20.8696100000
3238,02,"Reymonta",52.2506810000,20.8593230000
5502,02,"Cmentarz",52.3315880000,21.2747470000
4200,02,"Główna",52.0527650000,20.9862420000
4523,02,"Akacjowa",52.3935880000,21.0055670000
4583,02,"Zabłudowska",52.1904750000,21.1490990000
7986,04,"Gocławek",52.2381690000,21.1188840000
5432,01,"PKP Wołomin",52.3464730000,21.2388230000
9090,03,"Kosynierów",52.2849340000,21.1299140000
5180,03,"Kolejka Piaseczyńska",52.0690950000,21.0239980000
3719,01,"Anusinek",52.3820300000,21.0202300000
3636,22,"PKP Ursus",52.1955060000,20.8831200000
5494,01,"Ossów-Krzyż",52.3098530000,21.2343000000
5489,01,"Turów II",52.3128940000,21.2068970000
199,01,"Urbanistów",52.2073470000,20.9682610000
1597,02,"Nowiny",52.3337990000,21.0298570000
3452,01,"Os. Iskra",52.2212060000,21.0973420000
227,02,"Sójki",52.1442430000,21.0179180000
219,02,"Dworkowa",52.2061160000,21.0228930000
5917,02,"Wiedeńska",52.1310990000,21.0925420000
8285,52,"Ananasowa",52.2032490000,21.0743930000
8173,02,"Czekanowska",52.1651120000,21.2207920000
3888,04,"Zegrzyńska-IMGW",52.4092020000,20.9552330000
5987,02,"Os. Wituś",52.2973630000,21.1617720000
7789,03,"Pl. Szembeka",52.2424140000,21.1026230000
5884,01,"1 Sierpnia",52.1958820000,20.9635120000
4771,01,"Jesionowa",52.2291300000,20.8678780000
4414,02,"Wybrzeże Szczecińskie",52.2395410000,21.0419930000
310,01,"Wiśniowa",52.2117220000,21.0137310000
4147,01,"Poniatów",52.4533200000,20.9220900000
2146,01,"Wał Miedzeszyński",52.2264940000,21.0542050000
4904,02,"Mokry Ług-Leśniczówka",52.2817730000,21.1717580000
2680,02,"Umiastowska",52.2112110000,20.7687820000
4460,02,"Biedronki",52.4440830000,21.1254210000
5044,01,"Starochylicka",52.0776500000,21.0580000000
5229,01,"Serwitucka",52.3380270000,21.1828000000
6139,01,"Park Postępu",52.1832000000,20.9989410000
2312,01,"Zasobna",52.1838760000,21.1719430000
3149,01,"Kosów",52.0550100000,20.8295560000
1841,02,"Toruńska",52.2980210000,21.0240230000
753,02,"Hołubcowa",52.1562970000,20.9979420000
8452,80,"Warszawa Lotnisko Chopina",52.1696390000,20.9751790000
6025,02,"Bieszczadzka",52.3797880000,21.1630610000
8616,01,"MCS-Basen",52.2898530000,21.1213090000
9700,51,"Kościuszki",52.3206820000,21.0922700000
3585,06,"Park Kaskada",52.2733680000,20.9664950000
3106,01,"Pielęgniarek",52.2142040000,21.1424580000
6464,02,"Ostapowicza",51.9452610000,20.9513670000
2550,05,"PKP Falenica",52.1617640000,21.2106510000
3966,01,"Planty",52.2980100000,20.8056470000
1922,02,"Rondo Starzyńskiego",52.2632640000,21.0200620000
6575,02,"Pijarska-Osiedle",51.9861320000,21.2133820000
201,02,"Hala Kopińska",52.2180430000,20.9763720000
6155,01,"Bandurskiego I",52.3251550000,21.1042090000
548,02,"Siekierkowska",52.2088950000,21.0773510000
4580,03,"Warszawska",52.4477910000,20.8602530000
820,06,"Centrum",52.2295890000,21.0099620000
2989,02,"Małych Dębów",52.3317710000,21.0472190000
2318,01,"Wiesiołka",52.1720340000,21.1869750000
5525,02,"Dobiesz II",52.0053410000,21.1074180000
8157,02,"Główna",51.9467970000,21.0684030000
3745,01,"Wspólna",52.1894890000,21.3343380000
2932,01,"Os. Patio",52.1270260000,21.0963160000
2984,01,"Krzemienna",52.3137610000,21.0513510000
6424,02,"Wyjazd",52.1922020000,20.9860410000
7974,07,"Żerań FSO",52.2905260000,21.0023110000
1551,02,"Rondo Żaba",52.2692140000,21.0389520000
9633,01,"Szeligowska-Szkoła",52.2275650000,20.8846950000
3068,01,"Kolejowa",52.2230120000,20.9692260000
2556,02,"Przełęczy",52.1688870000,21.2238320000
4029,02,"Sobieskiego",52.1701380000,21.0665160000
2152,02,"Przyczółek Grochowski",52.2353980000,21.0787390000
4888,02,"Serwitucka",52.3379300000,21.1822110000
880,01,"Topiel",52.2375500000,21.0268080000
5944,01,"Miła",52.2473660000,20.9842360000
7148,52,"Gniewkowska",52.2123330000,20.9217400000
4400,02,"Kawęczyn II",52.0392520000,21.1764700000
6861,01,"Nowe Wągrodno",51.9451000000,21.0354800000
8461,80,"Warszawa Powązki",52.2560790000,20.9723860000
1794,02,"Pelcowizna",52.2954070000,21.0155930000
5610,01,"Ogrodowa",52.1033810000,21.0403990000
2387,01,"Wspólna",52.2463010000,21.1841510000
4777,03,"Wieruchów",52.2301510000,20.8352270000
1768,01,"Chodecka",52.2881810000,21.0395970000
499,01,"Dolina Służewiecka",52.1745540000,21.0437690000
11,01,"PKP Rakowiec",52.1979930000,20.9654640000
4438,03,"Człuchowska",52.2275480000,20.8978790000
2383,02,"Wiązana",52.1986540000,21.1427420000
4496,02,"Okunin",52.4346530000,20.7589450000
7711,03,"Pl. Grunwaldzki",52.2628500000,20.9794530000
1530,01,"Lniana",52.2735430000,21.0912190000
8620,02,"Brodnicka",52.1645780000,21.1879660000
5964,04,"Mazurska",52.3142730000,21.1331930000
9458,02,"Jesiennych Liści",52.0623450000,21.0769030000
4511,02,"Przyjaciół",52.4167530000,21.0551270000
8394,01,"Gratyny",52.1470090000,21.1365840000
7546,05,"Dworkowa",52.2048450000,21.0229160000
7746,01,"Golędzinów",52.2666560000,21.0200140000
6784,01,"Winnica",52.3405300000,20.9468240000
1633,01,"Przyjazna",52.3184530000,21.0324460000
409,02,"Orzycka",52.1711250000,21.0090780000
6547,01,"Zegrzyńska",52.4034310000,20.9483280000
6724,02,"Zielona",52.0420300000,20.9718400000
1567,01,"Insurekcji",52.3415150000,20.9884300000
7109,02,"Wilanówka",52.1258910000,21.1412520000
1267,01,"Chabrowa",52.2837520000,20.9027070000
2685,04,"Bronowska",52.1994460000,21.1189190000
8923,02,"Zaborówek-Osiedle",52.2628990000,20.6493410000
9453,02,"Ułanów Jazłowieckich",52.3324190000,20.8728280000
2055,02,"Bysławska",52.1558600000,21.1811630000
410,01,"Bartłomieja",52.1697520000,21.0089720000
4606,01,"Złota",51.9573760000,21.0264400000
7026,01,"Verdiego",52.3407600000,21.0546380000
1861,02,"Dw. Wileński",52.2552980000,21.0346110000
3525,02,"Dobosza",52.2101950000,20.9654260000
7510,03,"Krakowiaków",52.1865340000,20.9549360000
4559,02,"Brzezińska",52.3521520000,20.9829810000
5441,06,"Nowe Włochy",52.2100400000,20.8943020000
2090,01,"Gwarków",52.2648570000,21.1220740000
3423,02,"Wawrzyszewska",52.2460820000,20.9630840000
3583,16,"Metro Marymont",52.2719170000,20.9685110000
9406,52,"Krasickiego",52.3276030000,21.2171750000
9655,52,"Ręczajska",52.3337220000,21.2160000000
363,02,"Zalesie Dolne",52.0576090000,21.0086490000
53,01,"Malinowa",52.1937340000,20.8835410000
7613,06,"Krucza",52.2309570000,21.0169790000
2639,02,"Groszówka",52.2472500000,21.2078500000
762,04,"Metro Stokłosy",52.1568410000,21.0336020000
7736,03,"Romaszewskiego",52.2693650000,20.9533400000
1572,02,"Ołówkowa",52.3392920000,20.9934310000
7905,07,"Nowe Bemowo",52.2602330000,20.9250320000
3183,02,"Magdalenka",52.0980500000,20.9109800000
6109,02,"Stare Miasto",52.0759750000,21.2507180000
4535,02,"Wiśniowa",52.4103980000,20.9650690000
4139,03,"Sobieskiego",52.1690080000,21.0680640000
3477,03,"Stefanika",52.3275890000,20.9397760000
471,01,"Bogatki",52.1318760000,21.0177730000
1100,01,"Powązkowska",52.2533300000,20.9795210000
4476,01,"Magnolii",52.3921040000,21.1477260000
8026,02,"Wynalazek",52.1803330000,20.9934510000
3299,02,"Lipowo",52.1389960000,21.3956320000
6855,01,"Modrzewiowa",51.9616650000,21.0676350000
711,04,"Madalińskiego",52.2032150000,21.0095110000
6758,02,"Zegrzyńska",52.4034360000,20.9487990000
3404,01,"Kryniczna",52.2290200000,21.0515400000
1519,01,"Zabraniecka-Bocznica",52.2607570000,21.0719330000
217,04,"Pl. Unii Lubelskiej",52.2126560000,21.0212010000
4536,01,"Dziekanów Leśny",52.3415220000,20.8472190000
5572,01,"Wawer-Ratusz",52.2057120000,21.1720250000
4992,02,"Leśnych Boginek",52.0217970000,21.0411040000
4416,01,"Agatowa",52.0946320000,21.0327450000
3832,02,"Starowiejska",52.0833260000,20.7925240000
3194,01,"Wilcza Góra",52.0689030000,20.9484020000
4382,02,"Borowina III",52.0510740000,21.1272370000
473,01,"Pelikanów",52.1225140000,21.0180200000
160,03,"Rakowiec",52.1981980000,20.9848130000
2518,01,"Jurajska",52.1623900000,20.9922400000
1235,01,"Redutowa",52.2357970000,20.9386050000
8845,01,"Kocjana-Sądy",52.2503400000,20.8905600000
4406,01,"Ku Słońcu",52.0026140000,21.1972510000
6691,02,"Firmowa",52.3794690000,20.7674530000
7819,05,"Conrada",52.2715860000,20.9341350000
467,01,"Poleczki",52.1519500000,21.0173230000
8745,18,"P+R Al. Krakowska",52.1754380000,20.9430980000
4883,02,"Obrońców Warszawy",52.2132070000,20.7990230000
8121,02,"Nowe Grabie II",52.3529050000,21.3188430000
463,04,"Wyścigi",52.1673110000,21.0153110000
2784,02,"Lipy",52.4079750000,21.0383510000
849,02,"Zachęta",52.2396740000,21.0112670000
733,01,"Gotarda",52.1712290000,21.0057980000
4744,01,"Powstańców Warszawy",52.1054430000,21.2636680000
1457,01,"Hłaski",52.2768390000,20.9709720000
5743,02,"Paderewskiego",52.4279960000,20.7192220000
1993,01,"Edisona",52.2300330000,21.1369720000
5400,04,"Skorosze",52.1856560000,20.8958040000
1983,08,"Pl. Szembeka",52.2436300000,21.1031200000
2339,01,"Bronowska",52.1985560000,21.1187320000
4259,03,"Łazy",52.0814630000,20.8789880000
7949,01,"Julianowska",52.2847320000,21.0330100000
6569,02,"Kawęczynek II",52.0486520000,21.1511210000
5972,02,"Korczaka",52.3126850000,21.1651220000
4793,01,"Łaźniewska",52.2187210000,20.6923110000
4569,02,"Kościół",52.3424300000,20.8824510000
8872,08,"Pl. Hallera",52.2609740000,21.0308040000
1789,02,"Bartnicza",52.2866330000,21.0219050000
4151,01,"OSP Skrzeszew",52.4621540000,20.8945810000
5512,02,"Tramwajowa",52.3747800000,21.2473390000
4475,01,"Szkolna",52.3958320000,21.1433970000
8939,02,"Zegrze Płd.",52.4539780000,21.0136010000
7519,04,"Och-Teatr",52.2146030000,20.9796090000
4093,02,"Urząd Miasta",52.3954000000,20.9308000000
4635,02,"Kędzierówka",51.9815140000,21.0392640000
1587,01,"Mościckiego",52.2694760000,20.8141860000
3535,03,"Kłobucka",52.1572280000,20.9907070000
5892,02,"Słomczyn",52.0528870000,21.1553200000
3076,01,"Topograficzna",52.2618740000,21.1733290000
2646,01,"Zagórze-Sanatorium",52.1987880000,21.2458150000
1335,02,"Kwirynów",52.2589370000,20.8521600000
1305,02,"Wrzeciono",52.2921400000,20.9381200000
7750,03,"Odlewnicza",52.3051180000,21.0182860000
426,01,"Ogrody Działkowe Wilanówka",52.1631880000,21.1078320000
1943,02,"Białołęka-Ratusz",52.3218590000,20.9717910000
3825,01,"Pańska",52.3743900000,20.9279820000
9293,02,"Przyrodnicza",52.3275560000,21.0606110000
3916,03,"Brata Alberta",52.2460070000,21.1893230000
6697,02,"Sadowa",52.3592460000,20.8304460000
5994,01,"Chrzanów",52.2271880000,20.8887100000
6722,02,"Łączna",52.0308590000,20.8477970000
3481,01,"Barei",52.3367180000,20.9375170000
4345,02,"Czarnów",52.0556130000,21.0970860000
7612,05,"Krucza",52.2306900000,21.0158510000
1262,01,"Aspekt",52.2785130000,20.9338940000
2441,02,"Spółdzielnia",52.1365400000,20.9717700000
37,02,"PKP Włochy",52.2051720000,20.9161380000
7642,03,"GUS",52.2162020000,21.0052920000
267,02,"Sielce",52.2079200000,21.0485400000
4328,01,"Habdzin IV",52.0923810000,21.1780070000
2409,02,"Rybna",52.1589930000,20.9416930000
1175,02,"Człuchowska",52.2282700000,20.8971440000
1955,02,"Wspólna Droga",52.2435020000,21.0960570000
6830,01,"Leśna",51.9421070000,20.9794280000
4543,01,"Świderska",52.3105900000,20.9593630000
3710,01,"Os. Bukowiec",52.3950280000,20.9559340000
4830,02,"Kolibra",52.1061820000,20.9784550000
2030,02,"PKP Międzylesie",52.2042590000,21.1682870000
341,03,"Miklaszewskiego",52.1481930000,21.0431510000
3670,02,"Aluzyjna",52.3508040000,20.9457660000
1552,02,"Staniewicka",52.2739030000,21.0319670000
1431,20,"Metro Młociny",52.2912000000,20.9278600000
3931,02,"Plutonu Torpedy",52.1968590000,20.8901300000
6039,01,"Rosnowskiego",52.1303340000,21.0789220000
1122,02,"Fort Wola",52.2230970000,20.9284320000
9076,02,"Rondo WOŚP",52.4029330000,20.9152670000
7751,04,"Odlewnicza",52.3055420000,21.0180180000
7896,03,"Stare Bemowo",52.2598050000,20.8977790000
6720,01,"Pustelnicka",52.3141510000,21.1299080000
5015,02,"Dębówka II",52.0450430000,21.1956980000
6283,01,"Hoovera",52.3300890000,21.0926490000
9691,01,"Szybka",52.2005100000,20.9454280000
2336,01,"Skalnicowa",52.1843090000,21.1318930000
6527,02,"Ogrody Przyjaciół",52.3337350000,21.0176190000
3162,02,"Norwida",52.1740560000,20.8509320000
5954,02,"Powstańców",52.3142630000,21.1442780000
717,01,"Polskie Radio",52.1928680000,21.0150030000
3528,01,"Groty",52.2482300000,20.8787000000
684,01,"Mandarynki",52.1446390000,21.0638520000
8924,02,"Zaborówek-Wieś",52.2619290000,20.6302410000
4862,01,"Polna",52.4409030000,20.8226090000
6189,02,"Klaudyny",52.2849190000,20.9696700000
4389,01,"Witwickiego",52.0760800000,21.1174570000
4833,01,"Przepiórki",52.1019390000,20.9758310000
5008,03,"Skolimów",52.0773720000,21.1000810000
5557,01,"Stara Miłosna (Graniczna)",52.2145060000,21.2177490000
9024,01,"Os. Panieńska",52.2482790000,21.0281870000
3827,02,"Leśna",52.3761600000,20.9380980000
1979,03,"Wiatraczna",52.2449270000,21.0835910000
3611,02,"Warszawska",52.2531240000,20.8054730000
1753,06,"Metro Bródno",52.2930950000,21.0333560000
4241,01,"Os. Kwiatowa",52.0963410000,21.0013080000
8783,02,"Ks. Boguckiego",52.2600570000,20.9840330000
4614,02,"Leśna",51.9758159800,21.0113742600
6742,01,"Monte Cassino",52.2366660000,20.9479780000
5559,04,"Torfowa",52.2177190000,21.2205520000
4367,02,"Żwirowa",52.0590500000,21.1671290000
8874,03,"CH  Targówek",52.3010100000,21.0583340000
292,01,"Stępińska",52.2066580000,21.0370250000
1989,02,"Płowiecka",52.2329390000,21.1289160000
2500,01,"Pańska",52.0779980000,21.0782790000
1770,01,"Rolanda",52.2823640000,21.0533340000
4915,04,"Poligonowa",52.2353010000,21.0862810000
673,02,"PKP Piaseczno",52.0659290000,21.0202730000
7763,01,"Batalionu Platerówek",52.2737350000,21.0144180000
2216,01,"Wał Gocławski",52.2260750000,21.0787440000
1338,02,"Łąkowa",52.2910570000,20.8560840000
9715,52,"KMŁ",52.3582300000,20.8625150000
4808,01,"Baszkówka",52.0359720000,20.9232650000
8881,05,"Pl. Hallera",52.2596990000,21.0259920000
4973,01,"Do Fortu",52.1973200000,20.9893880000
166,02,"Pomnik Lotnika",52.2169470000,20.9903100000
